$GNRMC,082355.00,A,3030.1668774,N,11425.7511727,E,0.19,0.00,200524,0.0,E,R,V*4C
$GNGGA,082355.00,3030.1668774,N,11425.7511727,E,5,05,1.0,46.810,M,-13.676,M,0.0,0000*48
$GPGSA,A,3,06,11,13,15,20,29,,,,,,,2.7,1.2,2.4,1*26
$GPGSV,2,1,07,06,25,098,39,11,57,062,45,12,15,231,40,13,45,169,44,0*62
$GPGSV,2,2,07,15,24,206,41,20,60,007,45,29,29,316,43,,,,,0*50
$GNRMC,082356.00,A,3030.1668784,N,11425.7511952,E,0.10,0.00,200524,0.0,E,R,V*45
$GNGGA,082356.00,3030.1668784,N,11425.7511952,E,5,05,1.0,46.955,M,-13.676,M,0.0,0000*48
$GPGSA,A,3,06,11,13,15,20,29,,,,,,,2.7,1.2,2.4,1*26
$GPGSV,2,1,07,06,25,098,39,11,57,063,44,12,15,231,39,13,45,169,44,0*6C
$GPGSV,2,2,07,15,24,206,41,20,60,007,45,29,29,316,44,,,,,0*57
$GNRMC,082357.00,A,3030.1669327,N,11425.7511509,E,0.13,0.00,200524,0.0,E,R,V*49
$GNGGA,082357.00,3030.1669327,N,11425.7511509,E,4,06,1.0,47.370,M,-13.676,M,0.0,0000*49
$GPGSA,A,3,05,06,11,13,15,20,29,,,,,,2.4,1.1,2.2,1*25
$GPGSV,2,1,08,05,59,300,46,06,25,098,39,11,57,063,44,12,15,231,39,0*66
$GPGSV,2,2,08,13,45,169,44,15,24,206,41,20,60,007,46,29,29,316,43,0*61
$GNRMC,082358.00,A,3030.1668660,N,11425.7512158,E,0.15,0.00,200524,0.0,E,R,V*44
$GNGGA,082358.00,3030.1668660,N,11425.7512158,E,5,06,1.0,47.221,M,-13.676,M,-1.0,0000*6A
$GPGSA,A,3,05,06,11,13,15,20,29,,,,,,2.4,1.1,2.2,1*25
$GPGSV,2,1,08,05,59,300,45,06,25,098,39,11,57,063,44,12,15,231,39,0*65
$GPGSV,2,2,08,13,45,169,44,15,24,206,41,20,60,007,46,29,29,316,43,0*61
$GNRMC,082359.00,A,3030.1668610,N,11425.7512130,E,0.08,0.00,200524,0.0,E,R,V*40
$GNGGA,082359.00,3030.1668610,N,11425.7512130,E,5,06,1.0,47.287,M,-13.676,M,-1.0,0000*6E
$GPGSA,A,3,05,06,11,13,15,20,29,,,,,,2.4,1.1,2.2,1*25
$GPGSV,2,1,08,05,59,300,44,06,25,098,39,11,57,063,44,12,15,231,39,0*64
$GPGSV,2,2,08,13,45,169,44,15,24,206,42,20,60,007,45,29,29,316,43,0*61
$GNRMC,082400.00,A,3030.1668581,N,11425.7511994,E,0.16,0.00,200524,0.0,E,R,V*4A
$GNGGA,082400.00,3030.1668581,N,11425.7511994,E,5,06,1.0,47.326,M,-13.676,M,-1.0,0000*61
$GPGSA,A,3,05,06,11,13,15,20,29,,,,,,2.4,1.1,2.2,1*25
$GPGSV,2,1,08,05,59,300,44,06,25,098,39,11,57,063,44,12,15,231,39,0*64
$GPGSV,2,2,08,13,45,169,44,15,24,206,41,20,60,007,45,29,29,316,43,0*62
$GNRMC,082401.00,A,3030.1668552,N,11425.7511865,E,0.05,0.00,200524,0.0,E,R,V*48
$GNGGA,082401.00,3030.1668552,N,11425.7511865,E,5,06,1.0,47.257,M,-13.676,M,-1.0,0000*66
$GPGSA,A,3,05,06,11,13,15,20,29,,,,,,2.4,1.1,2.2,1*25
$GPGSV,2,1,08,05,59,300,45,06,25,098,39,11,57,063,44,12,15,231,39,0*65
$GPGSV,2,2,08,13,45,169,45,15,24,206,42,20,60,007,45,29,29,316,43,0*60
$GNRMC,082402.00,A,3030.1668573,N,11425.7511794,E,0.20,0.00,200524,0.0,E,R,V*4E
$GNGGA,082402.00,3030.1668573,N,11425.7511794,E,5,06,1.0,47.225,M,-13.676,M,-1.0,0000*62
$GPGSA,A,3,05,06,11,13,15,20,29,,,,,,2.4,1.1,2.2,1*25
$GPGSV,2,1,08,05,59,300,45,06,25,098,39,11,57,063,44,12,15,231,39,0*65
$GPGSV,2,2,08,13,45,169,45,15,24,206,41,20,60,007,45,29,29,316,43,0*63
$GNRMC,082403.00,A,3030.1668580,N,11425.7511773,E,0.19,0.00,200524,0.0,E,R,V*40
$GNGGA,082403.00,3030.1668580,N,11425.7511773,E,5,06,1.0,47.225,M,-13.676,M,-1.0,0000*66
$GPGSA,A,3,05,06,11,13,15,20,29,,,,,,2.4,1.1,2.2,1*25
$GPGSV,2,1,08,05,59,300,45,06,25,098,39,11,56,063,44,12,15,231,39,0*64
$GPGSV,2,2,08,13,45,169,44,15,24,206,41,20,60,007,46,29,29,316,44,0*66
$GNRMC,082404.00,A,3030.1668640,N,11425.7511650,E,0.11,0.00,200524,0.0,E,R,V*40
$GNGGA,082404.00,3030.1668640,N,11425.7511650,E,5,06,1.0,47.256,M,-13.676,M,0.0,0000*46
$GPGSA,A,3,05,06,11,13,15,20,29,,,,,,2.4,1.1,2.2,1*25
$GPGSV,2,1,08,05,59,300,45,06,25,098,39,11,56,063,44,12,15,231,39,0*64
$GPGSV,2,2,08,13,45,169,44,15,24,206,42,20,60,007,45,29,29,316,44,0*66
$GNRMC,082405.00,A,3030.1668650,N,11425.7511617,E,0.21,0.00,200524,0.0,E,R,V*40
$GNGGA,082405.00,3030.1668650,N,11425.7511617,E,5,06,1.0,47.291,M,-13.676,M,0.0,0000*4E
$GPGSA,A,3,05,06,11,13,15,20,29,,,,,,2.4,1.1,2.2,1*25
$GPGSV,2,1,08,05,59,300,45,06,25,098,39,11,56,063,44,12,15,231,39,0*64
$GPGSV,2,2,08,13,45,169,44,15,24,206,42,20,60,007,45,29,29,316,44,0*66
$GNRMC,082406.00,A,3030.1668713,N,11425.7511713,E,0.15,0.00,200524,0.0,E,R,V*47
$GNGGA,082406.00,3030.1668713,N,11425.7511713,E,5,06,1.0,47.330,M,-13.676,M,0.0,0000*44
$GPGSA,A,3,05,06,11,13,15,20,29,,,,,,2.4,1.1,2.2,1*25
$GPGSV,2,1,08,05,59,300,45,06,25,098,40,11,56,063,44,12,15,231,38,0*6B
$GPGSV,2,2,08,13,45,169,45,15,24,206,41,20,60,007,44,29,30,316,44,0*6D
$GNRMC,082407.00,A,3030.1668714,N,11425.7511761,E,0.11,0.00,200524,0.0,E,R,V*40
$GNGGA,082407.00,3030.1668714,N,11425.7511761,E,5,06,1.0,47.382,M,-13.676,M,0.0,0000*4E
$GPGSA,A,3,05,06,11,13,15,20,29,,,,,,2.4,1.1,2.2,1*25
$GPGSV,2,1,08,05,59,300,45,06,25,098,39,11,56,063,45,12,15,231,38,0*64
$GPGSV,2,2,08,13,45,169,45,15,24,206,41,20,60,007,44,29,30,316,44,0*6D
$GNRMC,082408.00,A,3030.1668742,N,11425.7511826,E,0.03,0.00,200524,0.0,E,R,V*43
$GNGGA,082408.00,3030.1668742,N,11425.7511826,E,5,06,1.0,47.347,M,-13.676,M,0.0,0000*47
$GPGSA,A,3,05,06,11,13,15,20,29,,,,,,2.4,1.1,2.2,1*25
$GPGSV,2,1,08,05,59,300,45,06,25,098,39,11,56,063,46,12,15,231,38,0*67
$GPGSV,2,2,08,13,45,169,45,15,24,206,41,20,60,007,44,29,30,316,45,0*6C
$GNRMC,082409.00,A,3030.1668725,N,11425.7511789,E,0.10,0.00,200524,0.0,E,R,V*4B
$GNGGA,082409.00,3030.1668725,N,11425.7511789,E,5,06,1.0,47.369,M,-13.676,M,0.0,0000*41
$GPGSA,A,3,05,06,11,13,15,20,29,,,,,,2.4,1.1,2.2,1*25
$GPGSV,2,1,08,05,59,300,46,06,25,098,41,11,56,063,46,12,15,231,38,0*6B
$GPGSV,2,2,08,13,45,169,45,15,24,206,41,20,60,007,45,29,30,316,44,0*6C
$GNRMC,082410.00,A,3030.1668747,N,11425.7511792,E,0.06,0.00,200524,0.0,E,R,V*4A
$GNGGA,082410.00,3030.1668747,N,11425.7511792,E,5,06,1.0,47.361,M,-13.676,M,0.0,0000*4F
$GPGSA,A,3,05,06,11,13,15,20,29,,,,,,2.4,1.1,2.2,1*25
$GPGSV,2,1,08,05,59,300,46,06,25,098,41,11,56,063,46,12,15,231,38,0*6B
$GPGSV,2,2,08,13,45,169,45,15,24,206,41,20,60,007,45,29,30,316,44,0*6C
$GNRMC,082411.00,A,3030.1668829,N,11425.7511849,E,0.17,0.00,200524,0.0,E,R,V*45
$GNGGA,082411.00,3030.1668829,N,11425.7511849,E,5,06,1.0,47.366,M,-13.676,M,0.0,0000*47
$GPGSA,A,3,05,06,11,13,15,20,29,,,,,,2.4,1.1,2.2,1*25
$GPGSV,2,1,08,05,59,300,45,06,25,098,41,11,56,063,46,12,15,231,38,0*68
$GPGSV,2,2,08,13,45,169,45,15,24,206,41,20,60,007,45,29,30,316,45,0*6D
$GNRMC,082412.00,A,3030.1668877,N,11425.7511884,E,0.05,0.00,200524,0.0,E,R,V*4F
$GNGGA,082412.00,3030.1668877,N,11425.7511884,E,5,06,1.0,47.386,M,-13.676,M,0.0,0000*40
$GPGSA,A,3,05,06,11,13,15,20,29,,,,,,2.4,1.1,2.2,1*25
$GPGSV,2,1,08,05,59,300,45,06,25,098,41,11,56,063,46,12,15,231,38,0*68
$GPGSV,2,2,08,13,45,169,45,15,24,206,42,20,60,007,44,29,30,316,45,0*6F
$GNRMC,082413.00,A,3030.1668939,N,11425.7511992,E,0.13,0.00,200524,0.0,E,R,V*44
$GNGGA,082413.00,3030.1668939,N,11425.7511992,E,5,06,1.0,47.388,M,-13.676,M,0.0,0000*42
$GPGSA,A,3,05,06,11,13,15,20,29,,,,,,2.4,1.1,2.2,1*25
$GPGSV,2,1,08,05,59,300,45,06,25,098,41,11,56,063,46,12,15,231,38,0*68
$GPGSV,2,2,08,13,45,169,45,15,24,206,41,20,60,007,44,29,30,316,45,0*6C
$GNRMC,082414.00,A,3030.1668991,N,11425.7512093,E,0.08,0.00,200524,0.0,E,R,V*40
$GNGGA,082414.00,3030.1668991,N,11425.7512093,E,5,06,1.0,47.373,M,-13.676,M,-1.0,0000*64
$GPGSA,A,3,05,06,11,13,15,20,29,,,,,,2.4,1.1,2.2,1*25
$GPGSV,2,1,08,05,59,300,45,06,25,098,42,11,56,063,45,12,15,231,38,0*68
$GPGSV,2,2,08,13,45,169,45,15,24,206,42,20,60,007,44,29,30,316,44,0*6E
$GNRMC,082415.00,A,3030.1669069,N,11425.7512245,E,0.06,0.00,200524,0.0,E,R,V*49
$GNGGA,082415.00,3030.1669069,N,11425.7512245,E,5,06,1.0,47.385,M,-13.676,M,-1.0,0000*6A
$GPGSA,A,3,05,06,11,13,15,20,29,,,,,,2.4,1.1,2.2,1*25
$GPGSV,2,1,08,05,59,300,46,06,25,098,42,11,56,063,45,12,15,231,38,0*6B
$GPGSV,2,2,08,13,45,169,45,15,24,206,42,20,60,007,44,29,30,316,44,0*6E
$GNRMC,082416.00,A,3030.1669145,N,11425.7512355,E,0.17,0.00,200524,0.0,E,R,V*45
$GNGGA,082416.00,3030.1669145,N,11425.7512355,E,5,06,1.0,47.377,M,-13.676,M,-1.0,0000*6B
$GPGSA,A,3,05,06,11,13,15,20,29,,,,,,2.4,1.1,2.2,1*25
$GPGSV,2,1,08,05,59,300,45,06,25,098,42,11,56,063,46,12,15,231,38,0*6B
$GPGSV,2,2,08,13,45,169,45,15,24,206,42,20,60,007,45,29,30,316,45,0*6E
$GNRMC,082417.00,A,3030.1669228,N,11425.7512505,E,0.09,0.00,200524,0.0,E,R,V*40
$GNGGA,082417.00,3030.1669228,N,11425.7512505,E,5,06,1.0,47.386,M,-13.676,M,-1.0,0000*6F
$GPGSA,A,3,05,06,11,13,15,20,29,,,,,,2.4,1.1,2.2,1*25
$GPGSV,2,1,08,05,59,300,45,06,25,098,42,11,56,063,46,12,15,231,39,0*6A
$GPGSV,2,2,08,13,45,169,45,15,24,206,42,20,60,007,45,29,30,316,44,0*6F
$GNRMC,082418.00,A,3030.1669281,N,11425.7512659,E,0.08,0.00,200524,0.0,E,R,V*47
$GNGGA,082418.00,3030.1669281,N,11425.7512659,E,5,06,1.0,47.374,M,-13.676,M,-1.0,0000*64
$GPGSA,A,3,05,06,11,13,15,20,29,,,,,,2.4,1.1,2.2,1*25
$GPGSV,2,1,08,05,59,300,45,06,25,098,42,11,56,063,46,12,15,231,38,0*6B
$GPGSV,2,2,08,13,45,169,45,15,24,206,42,20,60,007,44,29,30,316,44,0*6E
$GNRMC,082419.00,A,3030.1669305,N,11425.7512779,E,0.09,0.00,200524,0.0,E,R,V*49
$GNGGA,082419.00,3030.1669305,N,11425.7512779,E,5,06,1.0,47.374,M,-13.676,M,-1.0,0000*6B
$GPGSA,A,3,05,06,11,13,15,20,29,,,,,,2.4,1.1,2.2,1*25
$GPGSV,2,1,08,05,59,300,45,06,25,098,42,11,56,063,46,12,15,231,39,0*6A
$GPGSV,2,2,08,13,45,169,45,15,24,206,42,20,60,007,44,29,30,316,44,0*6E
$GNRMC,082420.00,A,3030.1669304,N,11425.7512895,E,0.03,0.00,200524,0.0,E,R,V*45
$GNGGA,082420.00,3030.1669304,N,11425.7512895,E,5,06,1.0,47.360,M,-13.676,M,0.0,0000*44
$GPGSA,A,3,05,06,11,13,15,20,29,,,,,,2.4,1.1,2.2,1*25
$GPGSV,2,1,08,05,59,300,45,06,25,098,42,11,56,063,45,12,15,231,39,0*69
$GPGSV,2,2,08,13,45,169,45,15,24,206,42,20,60,007,45,29,30,316,44,0*6F
$GNRMC,082421.00,A,3030.1669340,N,11425.7513032,E,0.14,0.00,200524,0.0,E,R,V*46
$GNGGA,082421.00,3030.1669340,N,11425.7513032,E,5,06,1.0,47.346,M,-13.676,M,0.0,0000*45
$GPGSA,A,3,05,06,11,13,15,20,29,,,,,,2.4,1.1,2.2,1*25
$GPGSV,2,1,08,05,59,300,45,06,25,098,42,11,56,063,45,12,15,231,39,0*69
$GPGSV,2,2,08,13,45,169,45,15,24,206,42,20,60,007,45,29,30,316,44,0*6F
$GNRMC,082422.00,A,3030.1669308,N,11425.7513128,E,0.13,0.00,200524,0.0,E,R,V*44
$GNGGA,082422.00,3030.1669308,N,11425.7513128,E,5,06,1.0,47.338,M,-13.676,M,0.0,0000*49
$GPGSA,A,3,05,06,11,13,15,20,29,,,,,,2.4,1.1,2.2,1*25
$GPGSV,2,1,08,05,59,300,44,06,25,098,42,11,56,063,46,12,15,231,39,0*6B
$GPGSV,2,2,08,13,45,169,45,15,24,206,42,20,60,007,44,29,30,316,44,0*6E
$GNRMC,082423.00,A,3030.1669277,N,11425.7513201,E,0.04,0.00,200524,0.0,E,R,V*42
$GNGGA,082423.00,3030.1669277,N,11425.7513201,E,5,06,1.0,47.323,M,-13.676,M,0.0,0000*43
$GPGSA,A,3,05,06,11,13,15,20,29,,,,,,2.4,1.1,2.2,1*25
$GPGSV,2,1,08,05,59,300,44,06,25,098,42,11,56,063,46,12,15,231,38,0*6A
$GPGSV,2,2,08,13,45,169,45,15,24,206,42,20,60,007,44,29,30,316,44,0*6E
$GNRMC,082424.00,A,3030.1669278,N,11425.7513299,E,0.13,0.00,200524,0.0,E,R,V*4D
$GNGGA,082424.00,3030.1669278,N,11425.7513299,E,5,06,1.0,47.312,M,-13.676,M,0.0,0000*48
$GPGSA,A,3,05,06,11,13,15,20,29,,,,,,2.4,1.1,2.2,1*25
$GPGSV,2,1,08,05,59,300,45,06,25,098,41,11,56,063,46,12,15,231,39,0*69
$GPGSV,2,2,08,13,45,169,45,15,24,206,41,20,60,007,45,29,30,316,44,0*6C
$GNRMC,082425.00,A,3030.1669281,N,11425.7513368,E,0.23,0.00,200524,0.0,E,R,V*46
$GNGGA,082425.00,3030.1669281,N,11425.7513368,E,5,06,1.0,47.300,M,-13.676,M,0.0,0000*43
$GPGSA,A,3,05,06,11,13,15,20,29,,,,,,2.4,1.1,2.2,1*25
$GPGSV,2,1,08,05,59,300,45,06,25,098,41,11,56,063,45,12,15,231,38,0*6B
$GPGSV,2,2,08,13,45,169,45,15,24,206,42,20,60,007,45,29,30,316,44,0*6F
$GNRMC,082426.00,A,3030.1669275,N,11425.7513419,E,0.19,0.00,200524,0.0,E,R,V*46
$GNGGA,082426.00,3030.1669275,N,11425.7513419,E,5,06,1.0,47.309,M,-13.676,M,0.0,0000*43
$GPGSA,A,3,05,06,11,13,15,20,29,,,,,,2.4,1.1,2.2,1*25
$GPGSV,2,1,08,05,59,300,45,06,25,098,41,11,56,063,46,12,15,231,38,0*68
$GPGSV,2,2,08,13,45,169,45,15,24,206,42,20,60,007,45,29,30,316,43,0*68
$GNRMC,082427.00,A,3030.1669267,N,11425.7513475,E,0.07,0.00,200524,0.0,E,R,V*41
$GNGGA,082427.00,3030.1669267,N,11425.7513475,E,5,06,1.0,47.296,M,-13.676,M,0.0,0000*4C
$GPGSA,A,3,05,06,11,13,15,20,29,,,,,,2.4,1.1,2.2,1*25
$GPGSV,2,1,08,05,59,300,45,06,25,098,41,11,56,063,46,12,15,231,39,0*69
$GPGSV,2,2,08,13,45,169,45,15,24,206,42,20,60,007,44,29,30,316,44,0*6E
$GNRMC,082428.00,A,3030.1669259,N,11425.7513531,E,0.11,0.00,200524,0.0,E,R,V*45
$GNGGA,082428.00,3030.1669259,N,11425.7513531,E,5,06,1.0,47.295,M,-13.676,M,0.0,0000*4C
$GPGSA,A,3,05,06,11,13,15,20,29,,,,,,2.4,1.1,2.2,1*25
$GPGSV,2,1,08,05,59,300,45,06,25,098,42,11,56,063,46,12,15,231,39,0*6A
$GPGSV,2,2,08,13,45,169,45,15,24,206,42,20,60,007,44,29,30,316,44,0*6E
$GNRMC,082429.00,A,3030.1669246,N,11425.7513590,E,0.09,0.00,200524,0.0,E,R,V*48
$GNGGA,082429.00,3030.1669246,N,11425.7513590,E,5,06,1.0,47.291,M,-13.676,M,-1.0,0000*60
$GPGSA,A,3,05,06,11,13,15,20,29,,,,,,2.4,1.1,2.2,1*25
$GPGSV,2,1,08,05,59,300,45,06,25,098,42,11,56,063,46,12,15,231,39,0*6A
$GPGSV,2,2,08,13,45,169,45,15,24,206,42,20,60,007,44,29,30,316,44,0*6E
$GNRMC,082430.00,A,3030.1669286,N,11425.7513641,E,0.07,0.00,200524,0.0,E,R,V*4D
$GNGGA,082430.00,3030.1669286,N,11425.7513641,E,5,06,1.0,47.279,M,-13.676,M,-1.0,0000*6D
$GPGSA,A,3,05,06,11,13,15,20,29,,,,,,2.4,1.1,2.2,1*25
$GPGSV,2,1,08,05,59,300,45,06,25,098,42,11,56,063,46,12,15,231,39,0*6A
$GPGSV,2,2,08,13,45,169,45,15,24,206,42,20,60,007,44,29,30,316,44,0*6E
$GNRMC,082431.00,A,3030.1669271,N,11425.7513689,E,0.17,0.00,200524,0.0,E,R,V*41
$GNGGA,082431.00,3030.1669271,N,11425.7513689,E,5,06,1.0,47.270,M,-13.676,M,-1.0,0000*69
$GPGSA,A,3,05,06,11,13,15,20,29,,,,,,2.4,1.1,2.2,1*25
$GPGSV,2,1,08,05,59,300,45,06,25,098,42,11,56,063,46,12,15,231,39,0*6A
$GPGSV,2,2,08,13,45,169,45,15,24,206,42,20,60,007,44,29,30,316,44,0*6E
$GNRMC,082432.00,A,3030.1669301,N,11425.7513749,E,0.05,0.00,200524,0.0,E,R,V*4A
$GNGGA,082432.00,3030.1669301,N,11425.7513749,E,5,06,1.0,47.277,M,-13.676,M,-1.0,0000*66
$GPGSA,A,3,05,06,11,13,15,20,29,,,,,,2.4,1.1,2.2,1*25
$GPGSV,2,1,08,05,59,300,45,06,25,098,42,11,56,063,46,12,15,231,39,0*6A
$GPGSV,2,2,08,13,45,169,45,15,24,206,42,20,60,007,45,29,30,316,44,0*6F
$GNRMC,082433.00,A,3030.1669333,N,11425.7513791,E,0.05,0.00,200524,0.0,E,R,V*4F
$GNGGA,082433.00,3030.1669333,N,11425.7513791,E,5,06,1.0,47.277,M,-13.676,M,-1.0,0000*63
$GPGSA,A,3,05,06,11,13,15,20,29,,,,,,2.4,1.1,2.2,1*25
$GPGSV,2,1,08,05,59,300,45,06,25,098,42,11,56,063,47,12,15,231,38,0*6A
$GPGSV,2,2,08,13,45,169,45,15,24,206,42,20,60,007,45,29,30,316,44,0*6F
$GNRMC,082434.00,A,3030.1669342,N,11425.7513817,E,0.05,0.00,200524,0.0,E,R,V*4F
$GNGGA,082434.00,3030.1669342,N,11425.7513817,E,5,06,1.0,47.273,M,-13.676,M,-1.0,0000*67
$GPGSA,A,3,05,06,11,13,15,20,29,,,,,,2.4,1.1,2.2,1*25
$GPGSV,2,1,08,05,59,300,45,06,25,098,42,11,56,063,46,12,15,231,38,0*6B
$GPGSV,2,2,08,13,45,169,45,15,24,206,42,20,60,007,45,29,30,316,44,0*6F
$GNRMC,082435.00,A,3030.1669372,N,11425.7513864,E,0.09,0.00,200524,0.0,E,R,V*45
$GNGGA,082435.00,3030.1669372,N,11425.7513864,E,5,06,1.0,47.294,M,-13.676,M,-1.0,0000*68
$GPGSA,A,3,05,06,11,13,15,20,29,,,,,,2.4,1.1,2.2,1*25
$GPGSV,2,1,08,05,59,301,45,06,25,098,41,11,56,063,46,12,15,231,38,0*69
$GPGSV,2,2,08,13,45,169,45,15,24,206,42,20,60,007,45,29,30,316,44,0*6F
$GNRMC,082436.00,A,3030.1669390,N,11425.7513869,E,0.10,0.00,200524,0.0,E,R,V*4F
$GNGGA,082436.00,3030.1669390,N,11425.7513869,E,5,06,1.0,47.294,M,-13.676,M,-1.0,0000*6A
$GPGSA,A,3,05,06,11,13,15,20,29,,,,,,2.4,1.1,2.2,1*25
$GPGSV,2,1,08,05,59,301,45,06,25,098,41,11,56,063,45,12,15,231,38,0*6A
$GPGSV,2,2,08,13,45,169,45,15,24,206,42,20,60,007,44,29,30,316,44,0*6E
$GNRMC,082437.00,A,3030.1669426,N,11425.7513906,E,0.12,0.00,200524,0.0,E,R,V*4E
$GNGGA,082437.00,3030.1669426,N,11425.7513906,E,5,06,1.0,47.295,M,-13.676,M,-1.0,0000*68
$GPGSA,A,3,05,06,11,13,15,20,29,,,,,,2.4,1.1,2.2,1*25
$GPGSV,2,1,08,05,59,301,45,06,25,098,41,11,56,063,46,12,15,231,38,0*69
$GPGSV,2,2,08,13,45,169,45,15,24,206,42,20,60,007,45,29,30,316,44,0*6F
$GNRMC,082438.00,A,3030.1669453,N,11425.7513925,E,0.11,0.00,200524,0.0,E,R,V*41
$GNGGA,082438.00,3030.1669453,N,11425.7513925,E,5,06,1.0,47.309,M,-13.676,M,-1.0,0000*60
$GPGSA,A,3,05,06,11,13,15,20,29,,,,,,2.4,1.1,2.2,1*25
$GPGSV,2,1,08,05,59,301,45,06,25,098,41,11,56,063,46,12,15,231,38,0*69
$GPGSV,2,2,08,13,45,169,45,15,24,206,42,20,60,007,45,29,30,316,44,0*6F
$GNRMC,082439.00,A,3030.1669472,N,11425.7513920,E,0.18,0.00,200524,0.0,E,R,V*4F
$GNGGA,082439.00,3030.1669472,N,11425.7513920,E,5,06,1.0,47.322,M,-13.676,M,-1.0,0000*6E
$GPGSA,A,3,05,06,11,13,15,20,29,,,,,,2.4,1.1,2.2,1*25
$GPGSV,2,1,07,05,59,301,45,06,25,098,41,11,56,063,46,13,45,169,45,0*66
$GPGSV,2,2,07,15,24,206,42,20,60,007,45,29,30,316,44,,,,,0*5C
$GNRMC,082440.00,A,3030.1669520,N,11425.7513972,E,0.08,0.00,200524,0.0,E,R,V*41
$GNGGA,082440.00,3030.1669520,N,11425.7513972,E,5,06,1.0,47.303,M,-13.676,M,0.0,0000*4E
$GPGSA,A,3,05,06,11,13,15,20,29,,,,,,2.4,1.1,2.2,1*25
$GPGSV,2,1,07,05,59,301,45,06,25,098,41,11,56,063,46,13,45,169,45,0*66
$GPGSV,2,2,07,15,24,206,42,20,60,007,45,29,30,316,44,,,,,0*5C
$GNRMC,082441.00,A,3030.1669558,N,11425.7514022,E,0.07,0.00,200524,0.0,E,R,V*4B
$GNGGA,082441.00,3030.1669558,N,11425.7514022,E,5,06,1.0,47.294,M,-13.676,M,0.0,0000*44
$GPGSA,A,3,05,06,11,13,15,20,29,,,,,,2.4,1.1,2.2,1*25
$GPGSV,2,1,07,05,59,301,45,06,25,098,41,11,56,063,46,13,45,169,45,0*66
$GPGSV,2,2,07,15,24,206,42,20,60,007,45,29,30,316,44,,,,,0*5C
$GNRMC,082442.00,A,3030.1669610,N,11425.7514091,E,0.05,0.00,200524,0.0,E,R,V*4D
$GNGGA,082442.00,3030.1669610,N,11425.7514091,E,5,06,1.0,47.278,M,-13.676,M,0.0,0000*42
$GPGSA,A,3,05,06,11,13,15,20,29,,,,,,2.4,1.1,2.2,1*25
$GPGSV,2,1,07,05,59,301,45,06,25,098,41,11,56,063,46,13,45,169,45,0*66
$GPGSV,2,2,07,15,24,206,42,20,60,007,44,29,30,316,44,,,,,0*5D
$GNRMC,082443.00,A,3030.1669628,N,11425.7514104,E,0.08,0.00,200524,0.0,E,R,V*47
$GNGGA,082443.00,3030.1669628,N,11425.7514104,E,5,06,1.0,47.272,M,-13.676,M,0.0,0000*4F
$GPGSA,A,3,05,06,11,13,15,20,29,,,,,,2.4,1.1,2.2,1*25
$GPGSV,2,1,07,05,59,301,45,06,25,098,41,11,56,063,47,13,45,169,45,0*67
$GPGSV,2,2,07,15,24,206,42,20,60,007,44,29,30,316,44,,,,,0*5D
$GNRMC,082444.00,A,3030.1669637,N,11425.7514163,E,0.20,0.00,200524,0.0,E,R,V*45
$GNGGA,082444.00,3030.1669637,N,11425.7514163,E,5,06,1.0,47.244,M,-13.676,M,0.0,0000*42
$GPGSA,A,3,05,06,11,13,15,20,29,,,,,,2.4,1.1,2.2,1*25
$GPGSV,2,1,07,05,59,301,45,06,25,098,41,11,56,063,46,13,45,169,45,0*66
$GPGSV,2,2,07,15,24,206,42,20,60,007,44,29,30,316,44,,,,,0*5D
$GNRMC,082445.00,A,3030.1669637,N,11425.7514187,E,0.03,0.00,200524,0.0,E,R,V*4F
$GNGGA,082445.00,3030.1669637,N,11425.7514187,E,5,06,1.0,47.229,M,-13.676,M,-1.0,0000*6E
$GPGSA,A,3,05,06,11,13,15,20,29,,,,,,2.4,1.1,2.2,1*25
$GPGSV,2,1,07,05,59,301,45,06,25,098,41,11,56,063,46,13,45,169,45,0*66
$GPGSV,2,2,07,15,24,206,42,20,60,008,44,29,30,316,44,,,,,0*52
$GNRMC,082446.00,A,3030.1669651,N,11425.7514217,E,0.06,0.00,200524,0.0,E,R,V*43
$GNGGA,082446.00,3030.1669651,N,11425.7514217,E,5,06,1.0,47.221,M,-13.676,M,-1.0,0000*6F
$GPGSA,A,3,05,06,11,13,15,20,29,,,,,,2.4,1.1,2.2,1*25
$GPGSV,2,1,07,05,59,301,45,06,25,098,41,11,56,063,46,13,45,169,45,0*66
$GPGSV,2,2,07,15,24,206,42,20,60,008,44,29,30,316,44,,,,,0*52
$GNRMC,082447.00,A,3030.1669656,N,11425.7514262,E,0.09,0.00,200524,0.0,E,R,V*48
$GNGGA,082447.00,3030.1669656,N,11425.7514262,E,5,06,1.0,47.208,M,-13.676,M,-1.0,0000*60
$GPGSA,A,3,05,06,11,13,15,20,29,,,,,,2.4,1.1,2.2,1*25
$GPGSV,2,1,07,05,59,301,45,06,25,098,42,11,56,063,46,13,45,169,45,0*65
$GPGSV,2,2,07,15,24,206,42,20,60,008,44,29,30,316,44,,,,,0*52
$GNRMC,082448.00,A,3030.1669647,N,11425.7514285,E,0.09,0.00,200524,0.0,E,R,V*4E
$GNGGA,082448.00,3030.1669647,N,11425.7514285,E,5,06,1.0,47.187,M,-13.676,M,-1.0,0000*62
$GPGSA,A,3,05,06,11,13,15,20,29,,,,,,2.4,1.1,2.2,1*25
$GPGSV,2,1,07,05,59,301,45,06,25,098,41,11,56,063,46,13,45,169,45,0*66
$GPGSV,2,2,07,15,25,206,42,20,60,008,44,29,30,316,44,,,,,0*53
$GNRMC,082449.00,A,3030.1669625,N,11425.7514320,E,0.04,0.00,200524,0.0,E,R,V*48
$GNGGA,082449.00,3030.1669625,N,11425.7514320,E,5,06,1.0,47.179,M,-13.676,M,-1.0,0000*68
$GPGSA,A,3,05,06,11,13,15,20,29,,,,,,2.4,1.1,2.2,1*25
$GPGSV,2,1,07,05,59,301,45,06,25,098,41,11,56,063,46,13,45,169,45,0*66
$GPGSV,2,2,07,15,25,206,42,20,60,008,44,29,30,316,44,,,,,0*53
$GNRMC,082450.00,A,3030.1669639,N,11425.7514343,E,0.10,0.00,200524,0.0,E,R,V*4D
$GNGGA,082450.00,3030.1669639,N,11425.7514343,E,5,06,1.0,47.154,M,-13.676,M,-1.0,0000*67
$GPGSA,A,3,05,06,11,13,15,20,29,,,,,,2.4,1.1,2.2,1*25
$GPGSV,2,1,07,05,59,301,45,06,25,098,41,11,56,063,46,13,45,169,45,0*66
$GPGSV,2,2,07,15,25,206,42,20,60,008,44,29,30,316,44,,,,,0*53
$GNRMC,082451.00,A,3030.1669648,N,11425.7514352,E,0.06,0.00,200524,0.0,E,R,V*4D
$GNGGA,082451.00,3030.1669648,N,11425.7514352,E,5,06,1.0,47.141,M,-13.676,M,0.0,0000*48
$GPGSA,A,3,05,06,11,13,15,20,29,,,,,,2.4,1.1,2.2,1*25
$GPGSV,2,1,07,05,59,301,44,06,25,098,41,11,56,063,46,13,45,169,45,0*67
$GPGSV,2,2,07,15,25,206,42,20,60,008,44,29,30,316,44,,,,,0*53
$GNRMC,082452.00,A,3030.1669651,N,11425.7514383,E,0.10,0.00,200524,0.0,E,R,V*4D
$GNGGA,082452.00,3030.1669651,N,11425.7514383,E,5,06,1.0,47.131,M,-13.676,M,0.0,0000*48
$GPGSA,A,3,05,06,11,13,15,20,29,,,,,,2.4,1.1,2.2,1*25
$GPGSV,2,1,07,05,59,301,45,06,25,098,42,11,56,063,46,13,45,169,45,0*65
$GPGSV,2,2,07,15,25,206,42,20,60,008,44,29,30,316,44,,,,,0*53
$GNRMC,082453.00,A,3030.1669681,N,11425.7514396,E,0.11,0.00,200524,0.0,E,R,V*44
$GNGGA,082453.00,3030.1669681,N,11425.7514396,E,5,06,1.0,47.114,M,-13.676,M,1.0,0000*46
$GPGSA,A,3,05,06,11,13,15,20,29,,,,,,2.4,1.1,2.2,1*25
$GPGSV,2,1,07,05,59,301,45,06,25,098,41,11,56,063,46,13,45,169,45,0*66
$GPGSV,2,2,07,15,25,206,42,20,60,008,45,29,30,316,44,,,,,0*52
$GNRMC,082454.00,A,3030.1669677,N,11425.7514385,E,0.20,0.00,200524,0.0,E,R,V*4A
$GNGGA,082454.00,3030.1669677,N,11425.7514385,E,5,06,1.0,47.085,M,-13.676,M,0.0,0000*42
$GPGSA,A,3,05,06,11,13,15,20,29,,,,,,2.4,1.1,2.2,1*25
$GPGSV,2,1,07,05,59,301,45,06,25,098,42,11,56,063,46,13,45,169,45,0*65
$GPGSV,2,2,07,15,25,206,42,20,60,008,44,29,30,316,44,,,,,0*53
$GNRMC,082455.00,A,3030.1669658,N,11425.7514358,E,0.03,0.00,200524,0.0,E,R,V*47
$GNGGA,082455.00,3030.1669658,N,11425.7514358,E,5,06,1.0,47.087,M,-13.676,M,0.0,0000*4C
$GPGSA,A,3,05,06,11,13,15,20,29,,,,,,2.4,1.1,2.2,1*25
$GPGSV,2,1,07,05,59,301,45,06,25,098,42,11,56,063,46,13,45,169,45,0*65
$GPGSV,2,2,07,15,25,206,42,20,60,008,44,29,30,316,44,,,,,0*53
$GNRMC,082456.00,A,3030.1669656,N,11425.7514322,E,0.07,0.00,200524,0.0,E,R,V*43
$GNGGA,082456.00,3030.1669656,N,11425.7514322,E,5,06,1.0,47.068,M,-13.676,M,0.0,0000*4D
$GPGSA,A,3,05,06,11,13,15,20,29,,,,,,2.4,1.1,2.2,1*25
$GPGSV,2,1,07,05,59,301,45,06,25,098,41,11,56,063,46,13,45,169,46,0*65
$GPGSV,2,2,07,15,25,206,42,20,60,008,44,29,30,316,44,,,,,0*53
$GNRMC,082457.00,A,3030.1669620,N,11425.7514298,E,0.14,0.00,200524,0.0,E,R,V*41
$GNGGA,082457.00,3030.1669620,N,11425.7514298,E,5,06,1.0,47.093,M,-13.676,M,0.0,0000*49
$GPGSA,A,3,05,06,11,13,15,20,29,,,,,,2.4,1.1,2.2,1*25
$GPGSV,2,1,07,05,59,301,45,06,25,098,41,11,56,063,45,13,45,169,46,0*66
$GPGSV,2,2,07,15,25,206,42,20,60,008,44,29,30,316,44,,,,,0*53
$GNRMC,082458.00,A,3030.1669572,N,11425.7514278,E,0.05,0.00,200524,0.0,E,R,V*44
$GNGGA,082458.00,3030.1669572,N,11425.7514278,E,5,06,1.0,47.083,M,-13.676,M,-1.0,0000*61
$GPGSA,A,3,05,06,11,13,15,20,29,,,,,,2.4,1.1,2.2,1*25
$GPGSV,2,1,07,05,59,301,45,06,25,098,42,11,56,063,45,13,45,169,46,0*65
$GPGSV,2,2,07,15,25,206,42,20,60,008,44,29,30,316,45,,,,,0*52
$GNRMC,082459.00,A,3030.1669566,N,11425.7514261,E,0.09,0.00,200524,0.0,E,R,V*44
$GNGGA,082459.00,3030.1669566,N,11425.7514261,E,5,06,1.0,47.079,M,-13.676,M,-1.0,0000*68
$GPGSA,A,3,05,06,11,13,15,20,29,,,,,,2.4,1.1,2.2,1*25
$GPGSV,2,1,07,05,59,301,45,06,25,098,41,11,56,063,45,13,45,169,45,0*65
$GPGSV,2,2,07,15,25,206,42,20,60,008,44,29,30,316,44,,,,,0*53
$GNRMC,082500.00,A,3030.1669554,N,11425.7514254,E,0.06,0.00,200524,0.0,E,R,V*41
$GNGGA,082500.00,3030.1669554,N,11425.7514254,E,5,06,1.0,47.081,M,-13.676,M,-1.0,0000*65
$GPGSA,A,3,05,06,11,13,15,20,29,,,,,,2.4,1.1,2.2,1*25
$GPGSV,2,1,07,05,59,301,45,06,25,098,41,11,56,063,46,13,45,169,45,0*66
$GPGSV,2,2,07,15,25,206,42,20,60,008,44,29,30,316,45,,,,,0*52
$GNRMC,082501.00,A,3030.1669529,N,11425.7514209,E,0.09,0.00,200524,0.0,E,R,V*4D
$GNGGA,082501.00,3030.1669529,N,11425.7514209,E,5,06,1.0,47.084,M,-13.676,M,-1.0,0000*63
$GPGSA,A,3,05,06,11,13,15,20,29,,,,,,2.4,1.1,2.2,1*25
$GPGSV,2,1,07,05,59,301,45,06,25,098,42,11,56,063,46,13,45,169,46,0*66
$GPGSV,2,2,07,15,25,206,42,20,60,008,44,29,30,316,44,,,,,0*53
$GNRMC,082502.00,A,3030.1669505,N,11425.7514210,E,0.08,0.00,200524,0.0,E,R,V*49
$GNGGA,082502.00,3030.1669505,N,11425.7514210,E,5,06,1.0,47.090,M,-13.676,M,-1.0,0000*63
$GPGSA,A,3,05,06,11,13,15,20,29,,,,,,2.4,1.1,2.2,1*25
$GPGSV,2,1,07,05,59,301,45,06,25,098,42,11,56,063,47,13,45,169,45,0*64
$GPGSV,2,2,07,15,25,206,42,20,60,008,44,29,30,316,44,,,,,0*53
$GNRMC,082503.00,A,3030.1669486,N,11425.7514192,E,0.06,0.00,200524,0.0,E,R,V*45
$GNGGA,082503.00,3030.1669486,N,11425.7514192,E,5,06,1.0,47.095,M,-13.676,M,-1.0,0000*64
$GPGSA,A,3,05,06,11,13,15,20,29,,,,,,2.4,1.1,2.2,1*25
$GPGSV,2,1,07,05,59,301,46,06,25,098,41,11,56,063,46,13,45,169,45,0*65
$GPGSV,2,2,07,15,25,206,42,20,60,008,44,29,30,316,44,,,,,0*53
$GNRMC,082504.00,A,3030.1669464,N,11425.7514175,E,0.02,0.00,200524,0.0,E,R,V*43
$GNGGA,082504.00,3030.1669464,N,11425.7514175,E,5,06,1.0,47.101,M,-13.676,M,-1.0,0000*6A
$GPGSA,A,3,05,06,11,13,15,20,29,,,,,,2.4,1.1,2.2,1*25
$GPGSV,2,1,07,05,59,301,46,06,25,098,42,11,56,063,46,13,45,169,45,0*66
$GPGSV,2,2,07,15,25,206,42,20,60,008,44,29,30,316,44,,,,,0*53
$GNRMC,082505.00,A,3030.1669464,N,11425.7514165,E,0.11,0.00,200524,0.0,E,R,V*41
$GNGGA,082505.00,3030.1669464,N,11425.7514165,E,5,06,1.0,47.096,M,-13.676,M,-1.0,0000*65
$GPGSA,A,3,05,06,11,13,15,20,29,,,,,,2.4,1.1,2.2,1*25
$GPGSV,2,1,07,05,59,301,45,06,25,098,42,11,56,063,46,13,45,169,45,0*65
$GPGSV,2,2,07,15,25,206,42,20,60,008,44,29,30,316,44,,,,,0*53
$GNRMC,082506.00,A,3030.1669493,N,11425.7514200,E,0.03,0.00,200524,0.0,E,R,V*49
$GNGGA,082506.00,3030.1669493,N,11425.7514200,E,5,06,1.0,47.099,M,-13.676,M,0.0,0000*4D
$GPGSA,A,3,05,06,11,13,15,20,29,,,,,,2.4,1.1,2.2,1*25
$GPGSV,2,1,07,05,59,301,45,06,25,098,42,11,56,063,46,13,45,169,45,0*65
$GPGSV,2,2,07,15,25,206,42,20,60,008,44,29,30,316,44,,,,,0*53
$GNRMC,082507.00,A,3030.1669475,N,11425.7514191,E,0.23,0.00,200524,0.0,E,R,V*49
$GNGGA,082507.00,3030.1669475,N,11425.7514191,E,5,06,1.0,47.084,M,-13.676,M,0.0,0000*43
$GPGSA,A,3,05,06,11,13,15,20,29,,,,,,2.4,1.1,2.2,1*25
$GPGSV,2,1,07,05,59,301,46,06,25,098,42,11,56,063,46,13,45,169,46,0*65
$GPGSV,2,2,07,15,25,206,42,20,60,008,44,29,30,316,45,,,,,0*52
$GNRMC,082508.00,A,3030.1669485,N,11425.7514205,E,0.14,0.00,200524,0.0,E,R,V*43
$GNGGA,082508.00,3030.1669485,N,11425.7514205,E,5,06,1.0,47.089,M,-13.676,M,0.0,0000*40
$GPGSA,A,3,05,06,11,13,15,20,29,,,,,,2.4,1.1,2.2,1*25
$GPGSV,2,1,07,05,59,301,46,06,25,098,42,11,56,064,45,13,45,169,46,0*61
$GPGSV,2,2,07,15,25,206,42,20,60,008,44,29,30,316,45,,,,,0*52
$GNRMC,082509.00,A,3030.1669523,N,11425.7514241,E,0.17,0.00,200524,0.0,E,R,V*4C
$GNGGA,082509.00,3030.1669523,N,11425.7514241,E,5,06,1.0,47.084,M,-13.676,M,1.0,0000*40
$GPGSA,A,3,05,06,11,13,15,20,29,,,,,,2.4,1.1,2.2,1*25
$GPGSV,2,1,07,05,59,301,46,06,25,098,42,11,56,064,45,13,45,169,45,0*62
$GPGSV,2,2,07,15,25,206,42,20,60,008,44,29,30,316,45,,,,,0*52
$GNRMC,082510.00,A,3030.1669505,N,11425.7514218,E,0.10,0.00,200524,0.0,E,R,V*4B
$GNGGA,082510.00,3030.1669505,N,11425.7514218,E,5,06,1.0,47.102,M,-13.676,M,0.0,0000*4E
$GPGSA,A,3,05,06,11,13,15,20,29,,,,,,2.4,1.1,2.2,1*25
$GPGSV,2,1,07,05,59,301,46,06,25,098,42,11,56,064,45,13,45,169,46,0*61
$GPGSV,2,2,07,15,25,206,42,20,60,008,44,29,30,316,45,,,,,0*52
$GNRMC,082511.00,A,3030.1669523,N,11425.7514205,E,0.09,0.00,200524,0.0,E,R,V*4A
$GNGGA,082511.00,3030.1669523,N,11425.7514205,E,5,06,1.0,47.118,M,-13.676,M,0.0,0000*4C
$GPGSA,A,3,05,06,11,13,15,20,29,,,,,,2.4,1.1,2.2,1*25
$GPGSV,2,1,07,05,59,301,45,06,25,098,42,11,56,064,45,13,45,169,46,0*62
$GPGSV,2,2,07,15,25,206,42,20,60,008,44,29,30,316,45,,,,,0*52
$GNRMC,082512.00,A,3030.1669546,N,11425.7514185,E,0.08,0.00,200524,0.0,E,R,V*40
$GNGGA,082512.00,3030.1669546,N,11425.7514185,E,5,06,1.0,47.139,M,-13.676,M,-1.0,0000*68
$GPGSA,A,3,05,06,11,13,15,20,29,,,,,,2.4,1.1,2.2,1*25
$GPGSV,2,1,07,05,59,301,46,06,25,098,42,11,56,064,46,13,45,169,46,0*62
$GPGSV,2,2,07,15,25,206,42,20,60,008,44,29,30,316,45,,,,,0*52
$GNRMC,082513.00,A,3030.1669559,N,11425.7514215,E,0.09,0.00,200524,0.0,E,R,V*44
$GNGGA,082513.00,3030.1669559,N,11425.7514215,E,5,06,1.0,47.154,M,-13.676,M,-1.0,0000*66
$GPGSA,A,3,05,06,11,13,15,20,29,,,,,,2.4,1.1,2.2,1*25
$GPGSV,2,1,07,05,59,301,45,06,25,098,42,11,56,064,46,13,45,169,45,0*62
$GPGSV,2,2,07,15,25,206,42,20,60,008,44,29,30,316,45,,,,,0*52
$GNRMC,082514.00,A,3030.1669555,N,11425.7514221,E,0.12,0.00,200524,0.0,E,R,V*42
$GNGGA,082514.00,3030.1669555,N,11425.7514221,E,5,06,1.0,47.171,M,-13.676,M,-1.0,0000*6D
$GPGSA,A,3,05,06,11,13,15,20,29,,,,,,2.4,1.1,2.2,1*25
$GPGSV,2,1,07,05,59,301,46,06,25,098,42,11,56,064,47,13,45,169,45,0*60
$GPGSV,2,2,07,15,25,206,42,20,60,008,44,29,30,316,45,,,,,0*52
$GNRMC,082515.00,A,3030.1669601,N,11425.7514230,E,0.06,0.00,200524,0.0,E,R,V*44
$GNGGA,082515.00,3030.1669601,N,11425.7514230,E,5,06,1.0,47.178,M,-13.676,M,-1.0,0000*67
$GPGSA,A,3,05,06,11,13,15,20,29,,,,,,2.4,1.1,2.2,1*25
$GPGSV,2,1,07,05,59,301,46,06,25,098,42,11,56,064,47,13,45,169,46,0*63
$GPGSV,2,2,07,15,25,206,42,20,60,008,45,29,30,316,45,,,,,0*53
$GNRMC,082516.00,A,3030.1669626,N,11425.7514227,E,0.05,0.00,200524,0.0,E,R,V*47
$GNGGA,082516.00,3030.1669626,N,11425.7514227,E,5,06,1.0,47.185,M,-13.676,M,-1.0,0000*65
$GPGSA,A,3,05,06,11,13,15,20,29,,,,,,2.4,1.1,2.2,1*25
$GPGSV,2,1,07,05,59,301,45,06,25,098,42,11,56,064,46,13,45,169,46,0*61
$GPGSV,2,2,07,15,25,206,42,20,60,008,45,29,30,316,45,,,,,0*53
$GNRMC,082517.00,A,3030.1669663,N,11425.7514238,E,0.06,0.00,200524,0.0,E,R,V*4A
$GNGGA,082517.00,3030.1669663,N,11425.7514238,E,5,06,1.0,47.193,M,-13.676,M,-1.0,0000*6C
$GPGSA,A,3,05,06,11,13,15,20,29,,,,,,2.4,1.1,2.2,1*25
$GPGSV,2,1,07,05,59,301,45,06,25,098,42,11,56,064,46,13,45,169,46,0*61
$GPGSV,2,2,07,15,25,206,42,20,60,008,44,29,30,316,45,,,,,0*52
$GNRMC,082518.00,A,3030.1669696,N,11425.7514228,E,0.03,0.00,200524,0.0,E,R,V*4B
$GNGGA,082518.00,3030.1669696,N,11425.7514228,E,5,06,1.0,47.194,M,-13.676,M,-1.0,0000*6F
$GPGSA,A,3,05,06,11,13,15,20,29,,,,,,2.4,1.1,2.2,1*25
$GPGSV,2,1,07,05,59,301,45,06,25,098,42,11,56,064,46,13,45,169,46,0*61
$GPGSV,2,2,07,15,25,206,42,20,60,008,45,29,30,316,44,,,,,0*52
$GNRMC,082519.00,A,3030.1669720,N,11425.7514233,E,0.07,0.00,200524,0.0,E,R,V*48
$GNGGA,082519.00,3030.1669720,N,11425.7514233,E,5,06,1.0,47.207,M,-13.676,M,-1.0,0000*61
$GPGSA,A,3,05,06,11,13,15,20,29,,,,,,2.4,1.1,2.2,1*25
$GPGSV,2,1,07,05,59,301,46,06,25,098,41,11,56,064,46,13,45,169,46,0*61
$GPGSV,2,2,07,15,25,206,42,20,60,008,44,29,30,316,44,,,,,0*53
$GNRMC,082520.00,A,3030.1669737,N,11425.7514243,E,0.05,0.00,200524,0.0,E,R,V*41
$GNGGA,082520.00,3030.1669737,N,11425.7514243,E,5,06,1.0,47.215,M,-13.676,M,-1.0,0000*69
$GPGSA,A,3,05,06,11,13,15,20,29,,,,,,2.4,1.1,2.2,1*25
$GPGSV,2,1,07,05,59,301,46,06,25,098,42,11,56,064,46,13,45,169,46,0*62
$GPGSV,2,2,07,15,25,206,42,20,60,008,44,29,30,316,45,,,,,0*52
$GNRMC,082521.00,A,3030.1669756,N,11425.7514241,E,0.05,0.00,200524,0.0,E,R,V*45
$GNGGA,082521.00,3030.1669756,N,11425.7514241,E,5,06,1.0,47.223,M,-13.676,M,-1.0,0000*68
$GPGSA,A,3,05,06,11,13,15,20,29,,,,,,2.4,1.1,2.2,1*25
$GPGSV,2,1,07,05,59,301,46,06,25,098,42,11,56,064,46,13,45,169,45,0*61
$GPGSV,2,2,07,15,25,206,42,20,59,008,44,29,30,316,44,,,,,0*59
$GNRMC,082522.00,A,3030.1669774,N,11425.7514255,E,0.10,0.00,200524,0.0,E,R,V*47
$GNGGA,082522.00,3030.1669774,N,11425.7514255,E,5,06,1.0,47.212,M,-13.676,M,-1.0,0000*6C
$GPGSA,A,3,05,06,11,13,15,20,29,,,,,,2.4,1.1,2.2,1*25
$GPGSV,2,1,07,05,59,301,46,06,25,098,42,11,56,064,46,13,45,169,45,0*61
$GPGSV,2,2,07,15,25,206,42,20,59,008,44,29,30,316,44,,,,,0*59
$GNRMC,082523.00,A,3030.1669816,N,11425.7514261,E,0.11,0.00,200524,0.0,E,R,V*4B
$GNGGA,082523.00,3030.1669816,N,11425.7514261,E,5,06,1.0,47.214,M,-13.676,M,0.0,0000*4B
$GPGSA,A,3,05,06,11,13,15,20,29,,,,,,2.4,1.1,2.2,1*25
$GPGSV,2,1,07,05,59,301,46,06,25,098,42,11,56,064,46,13,45,169,45,0*61
$GPGSV,2,2,07,15,25,206,42,20,59,008,45,29,30,316,45,,,,,0*59
$GNRMC,082524.00,A,3030.1669830,N,11425.7514247,E,0.13,0.00,200524,0.0,E,R,V*4E
$GNGGA,082524.00,3030.1669830,N,11425.7514247,E,5,06,1.0,47.215,M,-13.676,M,0.0,0000*4D
$GPGSA,A,3,05,06,11,13,15,20,29,,,,,,2.4,1.1,2.2,1*25
$GPGSV,2,1,07,05,59,301,46,06,25,098,41,11,56,064,47,13,45,169,46,0*60
$GPGSV,2,2,07,15,25,206,42,20,59,008,45,29,30,316,44,,,,,0*58
$GNRMC,082525.00,A,3030.1669853,N,11425.7514262,E,0.09,0.00,200524,0.0,E,R,V*46
$GNGGA,082525.00,3030.1669853,N,11425.7514262,E,5,06,1.0,47.206,M,-13.676,M,0.0,0000*4C
$GPGSA,A,3,05,06,11,13,15,20,29,,,,,,2.4,1.1,2.2,1*25
$GPGSV,2,1,07,05,59,301,45,06,25,098,41,11,56,064,46,13,45,169,45,0*61
$GPGSV,2,2,07,15,25,206,42,20,59,008,45,29,30,316,45,,,,,0*59
$GNRMC,082526.00,A,3030.1669829,N,11425.7514243,E,0.15,0.00,200524,0.0,E,R,V*46
$GNGGA,082526.00,3030.1669829,N,11425.7514243,E,5,06,1.0,47.214,M,-13.676,M,0.0,0000*42
$GPGSA,A,3,05,06,11,13,15,20,29,,,,,,2.4,1.1,2.2,1*25
$GPGSV,2,1,07,05,59,301,45,06,25,098,41,11,56,064,46,13,45,169,45,0*61
$GPGSV,2,2,07,15,25,206,42,20,59,008,44,29,30,316,45,,,,,0*58
$GNRMC,082527.00,A,3030.1669861,N,11425.7514254,E,0.10,0.00,200524,0.0,E,R,V*48
$GNGGA,082527.00,3030.1669861,N,11425.7514254,E,5,06,1.0,47.212,M,-13.676,M,0.0,0000*4F
$GPGSA,A,3,05,06,11,13,15,20,29,,,,,,2.4,1.1,2.2,1*25
$GPGSV,2,1,07,05,59,301,45,06,25,098,41,11,56,064,46,13,45,169,45,0*61
$GPGSV,2,2,07,15,25,206,42,20,59,008,44,29,30,316,44,,,,,0*59
$GNRMC,082528.00,A,3030.1669869,N,11425.7514252,E,0.08,0.00,200524,0.0,E,R,V*40
$GNGGA,082528.00,3030.1669869,N,11425.7514252,E,5,06,1.0,47.209,M,-13.676,M,0.0,0000*44
$GPGSA,A,3,05,06,11,13,15,20,29,,,,,,2.4,1.1,2.2,1*25
$GPGSV,2,1,07,05,59,301,45,06,25,098,41,11,56,064,45,13,45,169,45,0*62
$GPGSV,2,2,07,15,25,206,42,20,59,008,44,29,30,316,44,,,,,0*59
$GNRMC,082529.00,A,3030.1669846,N,11425.7514276,E,0.10,0.00,200524,0.0,E,R,V*43
$GNGGA,082529.00,3030.1669846,N,11425.7514276,E,5,06,1.0,47.197,M,-13.676,M,0.0,0000*4A
$GPGSA,A,3,05,06,11,13,15,20,29,,,,,,2.4,1.1,2.2,1*25
$GPGSV,2,1,07,05,59,301,45,06,25,098,41,11,56,064,46,13,45,169,45,0*61
$GPGSV,2,2,07,15,25,206,42,20,59,008,44,29,30,316,44,,,,,0*59
$GNRMC,082530.00,A,3030.1669856,N,11425.7514290,E,0.07,0.00,200524,0.0,E,R,V*44
$GNGGA,082530.00,3030.1669856,N,11425.7514290,E,5,06,1.0,47.189,M,-13.676,M,0.0,0000*44
$GPGSA,A,3,05,06,11,13,15,20,29,,,,,,2.4,1.1,2.2,1*25
$GPGSV,2,1,07,05,59,301,45,06,25,098,41,11,56,064,46,13,45,169,45,0*61
$GPGSV,2,2,07,15,25,206,42,20,59,008,44,29,30,316,44,,,,,0*59
$GNRMC,082531.00,A,3030.1669850,N,11425.7514302,E,0.06,0.00,200524,0.0,E,R,V*48
$GNGGA,082531.00,3030.1669850,N,11425.7514302,E,5,06,1.0,47.183,M,-13.676,M,0.0,0000*43
$GPGSA,A,3,05,06,11,13,15,20,29,,,,,,2.4,1.1,2.2,1*25
$GPGSV,2,1,07,05,59,301,45,06,25,098,41,11,56,064,45,13,45,169,45,0*62
$GPGSV,2,2,07,15,25,206,42,20,59,008,44,29,30,316,45,,,,,0*58
$GNRMC,082532.00,A,3030.1669822,N,11425.7514309,E,0.13,0.00,200524,0.0,E,R,V*41
$GNGGA,082532.00,3030.1669822,N,11425.7514309,E,5,06,1.0,47.176,M,-13.676,M,-1.0,0000*68
$GPGSA,A,3,05,06,11,13,15,20,29,,,,,,2.4,1.1,2.2,1*25
$GPGSV,2,1,07,05,59,301,45,06,25,098,41,11,56,064,45,13,45,169,45,0*62
$GPGSV,2,2,07,15,25,206,42,20,59,008,44,29,30,316,45,,,,,0*58
$GNRMC,082533.00,A,3030.1669814,N,11425.7514316,E,0.10,0.00,200524,0.0,E,R,V*48
$GNGGA,082533.00,3030.1669814,N,11425.7514316,E,5,06,1.0,47.182,M,-13.676,M,-1.0,0000*69
$GPGSA,A,3,05,06,11,13,15,20,29,,,,,,2.4,1.1,2.2,1*25
$GPGSV,2,1,07,05,59,301,45,06,25,098,42,11,56,064,46,13,45,169,45,0*62
$GPGSV,2,2,07,15,25,206,42,20,59,008,44,29,30,316,45,,,,,0*58
$GNRMC,082534.00,A,3030.1669766,N,11425.7514309,E,0.06,0.00,200524,0.0,E,R,V*4C
$GNGGA,082534.00,3030.1669766,N,11425.7514309,E,5,06,1.0,47.170,M,-13.676,M,-1.0,0000*67
$GPGSA,A,3,05,06,11,13,15,20,29,,,,,,2.4,1.1,2.2,1*25
$GPGSV,2,1,07,05,59,301,45,06,25,098,41,11,56,064,45,13,45,169,45,0*62
$GPGSV,2,2,07,15,25,206,42,20,59,008,44,29,30,316,44,,,,,0*59
$GNRMC,082535.00,A,3030.1669622,N,11425.7514278,E,0.08,0.00,200524,0.0,E,R,V*45
$GNGGA,082535.00,3030.1669622,N,11425.7514278,E,5,06,1.0,47.186,M,-13.676,M,-1.0,0000*69
$GPGSA,A,3,05,06,11,13,15,20,29,,,,,,2.4,1.1,2.2,1*25
$GPGSV,2,1,07,05,59,301,45,06,25,098,41,11,56,064,46,13,45,169,45,0*61
$GPGSV,2,2,07,15,25,206,42,20,59,008,44,29,30,316,44,,,,,0*59
$GNRMC,082536.00,A,3030.1669597,N,11425.7514262,E,0.03,0.00,200524,0.0,E,R,V*4B
$GNGGA,082536.00,3030.1669597,N,11425.7514262,E,5,06,1.0,47.204,M,-13.676,M,-1.0,0000*65
$GPGSA,A,3,05,06,11,13,15,20,29,,,,,,2.4,1.1,2.2,1*25
$GPGSV,2,1,07,05,59,301,45,06,25,098,41,11,56,064,46,13,45,169,45,0*61
$GPGSV,2,2,07,15,25,206,42,20,59,008,44,29,30,316,45,,,,,0*58
$GNRMC,082537.00,A,3030.1669624,N,11425.7514309,E,0.18,0.00,200524,0.0,E,R,V*47
$GNGGA,082537.00,3030.1669624,N,11425.7514309,E,5,06,1.0,47.205,M,-13.676,M,-1.0,0000*62
$GPGSA,A,3,05,06,11,13,15,20,29,,,,,,2.4,1.1,2.2,1*25
$GPGSV,2,1,07,05,59,301,45,06,25,098,42,11,56,064,47,13,45,169,45,0*63
$GPGSV,2,2,07,15,25,206,42,20,59,008,44,29,30,316,44,,,,,0*59
$GNRMC,082538.00,A,3030.1669607,N,11425.7514326,E,0.08,0.00,200524,0.0,E,R,V*45
$GNGGA,082538.00,3030.1669607,N,11425.7514326,E,5,06,1.0,47.211,M,-13.676,M,-1.0,0000*64
$GPGSA,A,3,05,06,11,13,15,20,29,,,,,,2.4,1.1,2.2,1*25
$GPGSV,2,1,07,05,59,301,46,06,25,098,42,11,56,064,47,13,45,169,45,0*60
$GPGSV,2,2,07,15,25,206,42,20,59,008,44,29,30,316,45,,,,,0*58
$GNRMC,082539.00,A,3030.1669597,N,11425.7514321,E,0.11,0.00,200524,0.0,E,R,V*41
$GNGGA,082539.00,3030.1669597,N,11425.7514321,E,5,06,1.0,47.224,M,-13.676,M,-1.0,0000*6E
$GPGSA,A,3,05,06,11,13,15,20,29,,,,,,2.4,1.1,2.2,1*25
$GPGSV,2,1,07,05,59,302,46,06,25,098,41,11,56,064,46,13,45,169,45,0*61
$GPGSV,2,2,07,15,25,206,42,20,59,008,44,29,30,316,44,,,,,0*59
$GNRMC,082540.00,A,3030.1669602,N,11425.7514357,E,0.10,0.00,200524,0.0,E,R,V*40
$GNGGA,082540.00,3030.1669602,N,11425.7514357,E,5,06,1.0,47.219,M,-13.676,M,0.0,0000*4C
$GPGSA,A,3,05,06,11,13,15,20,29,,,,,,2.4,1.1,2.2,1*25
$GPGSV,2,1,07,05,59,302,46,06,25,098,41,11,56,064,46,13,45,169,45,0*61
$GPGSV,2,2,07,15,25,206,42,20,59,008,44,29,30,316,44,,,,,0*59
$GNRMC,082541.00,A,3030.1669719,N,11425.7514402,E,0.06,0.00,200524,0.0,E,R,V*4A
$GNGGA,082541.00,3030.1669719,N,11425.7514402,E,5,06,1.0,47.216,M,-13.676,M,0.0,0000*4E
$GPGSA,A,3,05,06,11,13,15,20,29,,,,,,2.4,1.1,2.2,1*25
$GPGSV,2,1,07,05,59,302,46,06,25,098,41,11,56,064,46,13,45,169,45,0*61
$GPGSV,2,2,07,15,25,206,42,20,59,008,45,29,30,316,44,,,,,0*58
$GNRMC,082542.00,A,3030.1669377,N,11425.7514346,E,0.06,0.00,200524,0.0,E,R,V*42
$GNGGA,082542.00,3030.1669377,N,11425.7514346,E,5,06,1.0,47.240,M,-13.676,M,0.0,0000*45
$GPGSA,A,3,05,06,11,13,15,20,29,,,,,,2.4,1.1,2.2,1*25
$GPGSV,2,1,07,05,59,302,45,06,25,098,42,11,56,064,47,13,45,169,45,0*60
$GPGSV,2,2,07,15,25,206,42,20,59,008,44,29,30,316,44,,,,,0*59
$GNRMC,082543.00,A,3030.1669734,N,11425.7514450,E,0.17,0.00,200524,0.0,E,R,V*40
$GNGGA,082543.00,3030.1669734,N,11425.7514450,E,5,06,1.0,47.240,M,-13.676,M,0.0,0000*47
$GPGSA,A,3,05,06,11,13,20,29,,,,,,,2.8,1.4,2.4,1*2E
$GPGSV,2,1,06,05,59,302,45,06,25,098,42,11,56,064,45,13,45,169,45,0*63
$GPGSV,2,2,06,20,59,008,44,29,30,316,44,,,,,,,,,0*69
$GNRMC,082544.00,A,3030.1669732,N,11425.7514433,E,0.05,0.00,200524,0.0,E,R,V*47
$GNGGA,082544.00,3030.1669732,N,11425.7514433,E,5,06,1.0,47.240,M,-13.676,M,0.0,0000*43
$GPGSA,A,3,05,06,11,13,20,29,,,,,,,2.8,1.4,2.4,1*2E
$GPGSV,2,1,06,05,59,302,45,06,25,098,42,11,56,064,45,13,45,169,46,0*60
$GPGSV,2,2,06,20,59,008,44,29,30,316,44,,,,,,,,,0*69
$GNRMC,082545.00,A,3030.1669715,N,11425.7514449,E,0.08,0.00,200524,0.0,E,R,V*43
$GNGGA,082545.00,3030.1669715,N,11425.7514449,E,5,06,1.0,47.247,M,-13.676,M,-1.0,0000*61
$GPGSA,A,3,05,06,11,13,20,29,,,,,,,2.8,1.4,2.4,1*2E
$GPGSV,2,1,06,05,59,302,45,06,25,098,42,11,56,064,45,13,46,169,46,0*63
$GPGSV,2,2,06,20,59,008,44,29,30,316,44,,,,,,,,,0*69
$GNRMC,082546.00,A,3030.1669759,N,11425.7514451,E,0.07,0.00,200524,0.0,E,R,V*4E
$GNGGA,082546.00,3030.1669759,N,11425.7514451,E,5,06,1.0,47.246,M,-13.676,M,-1.0,0000*62
$GPGSA,A,3,05,06,11,13,20,29,,,,,,,2.8,1.4,2.4,1*2E
$GPGSV,2,1,06,05,59,302,45,06,25,098,41,11,56,064,45,13,46,169,45,0*63
$GPGSV,2,2,06,20,59,008,44,29,30,316,44,,,,,,,,,0*69
$GNRMC,082547.00,A,3030.1669769,N,11425.7514453,E,0.09,0.00,200524,0.0,E,R,V*40
$GNGGA,082547.00,3030.1669769,N,11425.7514453,E,5,06,1.0,47.240,M,-13.676,M,-1.0,0000*64
$GPGSA,A,3,05,06,11,13,20,29,,,,,,,2.8,1.4,2.4,1*2E
$GPGSV,2,1,06,05,59,302,45,06,25,098,41,11,56,064,45,13,46,169,46,0*60
$GPGSV,2,2,06,20,59,008,45,29,30,316,44,,,,,,,,,0*68
$GNRMC,082548.00,A,3030.1669845,N,11425.7514492,E,0.08,0.00,200524,0.0,E,R,V*42
$GNGGA,082548.00,3030.1669845,N,11425.7514492,E,5,06,1.0,47.218,M,-13.676,M,-1.0,0000*6A
$GPGSA,A,3,05,06,11,13,20,29,,,,,,,2.8,1.4,2.4,1*2E
$GPGSV,2,1,06,05,59,302,45,06,25,098,41,11,56,064,46,13,46,169,46,0*63
$GPGSV,2,2,06,20,59,008,44,29,30,316,44,,,,,,,,,0*69
$GNRMC,082549.00,A,3030.1669842,N,11425.7514494,E,0.08,0.00,200524,0.0,E,R,V*42
$GNGGA,082549.00,3030.1669842,N,11425.7514494,E,5,06,1.0,47.218,M,-13.676,M,-1.0,0000*6A
$GPGSA,A,3,05,06,11,13,20,29,,,,,,,2.8,1.4,2.4,1*2E
$GPGSV,2,1,06,05,59,302,45,06,25,098,41,11,56,064,46,13,46,169,46,0*63
$GPGSV,2,2,06,20,59,008,44,29,30,316,44,,,,,,,,,0*69
$GNRMC,082550.00,A,3030.1669869,N,11425.7514497,E,0.10,0.00,200524,0.0,E,R,V*49
$GNGGA,082550.00,3030.1669869,N,11425.7514497,E,5,06,1.0,47.206,M,-13.676,M,-1.0,0000*67
$GPGSA,A,3,05,06,11,13,20,29,,,,,,,2.8,1.4,2.4,1*2E
$GPGSV,2,1,06,05,59,302,45,06,25,098,42,11,56,064,46,13,46,169,45,0*63
$GPGSV,2,2,06,20,59,008,44,29,30,316,44,,,,,,,,,0*69
$GNRMC,082551.00,A,3030.1669881,N,11425.7514502,E,0.08,0.00,200524,0.0,E,R,V*4A
$GNGGA,082551.00,3030.1669881,N,11425.7514502,E,5,06,1.0,47.209,M,-13.676,M,-1.0,0000*62
$GPGSA,A,3,05,06,11,13,20,29,,,,,,,2.8,1.4,2.4,1*2E
$GPGSV,2,1,06,05,59,302,45,06,25,098,42,11,56,064,46,13,46,169,45,0*63
$GPGSV,2,2,06,20,59,008,44,29,30,316,44,,,,,,,,,0*69
$GNRMC,082552.00,A,3030.1669906,N,11425.7514516,E,0.04,0.00,200524,0.0,E,R,V*4E
$GNGGA,082552.00,3030.1669906,N,11425.7514516,E,5,06,1.0,47.198,M,-13.676,M,0.0,0000*4D
$GPGSA,A,3,05,06,11,13,20,29,,,,,,,2.8,1.4,2.4,1*2E
$GPGSV,2,1,06,05,59,302,45,06,25,098,42,11,56,064,45,13,46,169,46,0*63
$GPGSV,2,2,06,20,59,008,44,29,30,316,44,,,,,,,,,0*69
$GNRMC,082553.00,A,3030.1669919,N,11425.7514515,E,0.07,0.00,200524,0.0,E,R,V*41
$GNGGA,082553.00,3030.1669919,N,11425.7514515,E,5,06,1.0,47.194,M,-13.676,M,0.0,0000*4D
$GPGSA,A,3,05,06,11,13,20,29,,,,,,,2.8,1.4,2.4,1*2E
$GPGSV,2,1,06,05,59,302,45,06,25,098,41,11,56,064,46,13,46,169,45,0*60
$GPGSV,2,2,06,20,59,008,44,29,30,316,44,,,,,,,,,0*69
$GNRMC,082554.00,A,3030.1669929,N,11425.7514510,E,0.29,0.00,200524,0.0,E,R,V*4C
$GNGGA,082554.00,3030.1669929,N,11425.7514510,E,5,06,1.0,47.209,M,-13.676,M,0.0,0000*4B
$GPGSA,A,3,05,06,11,13,20,29,,,,,,,2.8,1.4,2.4,1*2E
$GPGSV,2,1,06,05,59,302,45,06,25,098,41,11,56,064,46,13,46,169,45,0*60
$GPGSV,2,2,06,20,59,008,44,29,30,316,45,,,,,,,,,0*68
$GNRMC,082555.00,A,3030.1669950,N,11425.7514528,E,0.26,0.00,200524,0.0,E,R,V*47
$GNGGA,082555.00,3030.1669950,N,11425.7514528,E,5,06,1.0,47.179,M,-13.676,M,0.0,0000*4B
$GPGSA,A,3,05,06,11,13,20,29,,,,,,,2.8,1.4,2.4,1*2E
$GPGSV,2,1,06,05,59,302,45,06,25,098,41,11,56,064,46,13,46,169,45,0*60
$GPGSV,2,2,06,20,59,008,44,29,30,316,45,,,,,,,,,0*68
$GNRMC,082556.00,A,3030.1669964,N,11425.7514528,E,0.09,0.00,200524,0.0,E,R,V*4E
$GNGGA,082556.00,3030.1669964,N,11425.7514528,E,5,06,1.0,47.181,M,-13.676,M,0.0,0000*48
$GPGSA,A,3,05,06,11,13,20,29,,,,,,,2.8,1.4,2.4,1*2E
$GPGSV,2,1,06,05,59,302,45,06,25,098,41,11,56,064,46,13,46,169,45,0*60
$GPGSV,2,2,06,20,59,008,44,29,30,316,44,,,,,,,,,0*69
$GNRMC,082557.00,A,3030.1669946,N,11425.7514525,E,0.13,0.00,200524,0.0,E,R,V*49
$GNGGA,082557.00,3030.1669946,N,11425.7514525,E,5,06,1.0,47.164,M,-13.676,M,0.0,0000*4F
$GPGSA,A,3,05,06,11,13,20,29,,,,,,,2.8,1.4,2.4,1*2E
$GPGSV,2,1,06,05,59,302,45,06,25,098,41,11,56,064,46,13,46,169,45,0*60
$GPGSV,2,2,06,20,59,008,44,29,30,316,44,,,,,,,,,0*69
$GNRMC,082558.00,A,3030.1669981,N,11425.7514528,E,0.09,0.00,200524,0.0,E,R,V*4B
$GNGGA,082558.00,3030.1669981,N,11425.7514528,E,5,06,1.0,47.168,M,-13.676,M,0.0,0000*4A
$GPGSA,A,3,05,06,11,13,20,29,,,,,,,2.8,1.4,2.4,1*2E
$GPGSV,2,1,06,05,59,302,45,06,25,098,41,11,56,064,46,13,46,169,45,0*60
$GPGSV,2,2,06,20,59,008,44,29,30,316,44,,,,,,,,,0*69
$GNRMC,082559.00,A,3030.1669968,N,11425.7514525,E,0.12,0.00,200524,0.0,E,R,V*4A
$GNGGA,082559.00,3030.1669968,N,11425.7514525,E,5,06,1.0,47.168,M,-13.676,M,0.0,0000*41
$GPGSA,A,3,05,06,11,13,20,29,,,,,,,2.8,1.4,2.4,1*2E
$GPGSV,2,1,06,05,59,302,45,06,25,098,41,11,56,064,46,13,46,169,45,0*60
$GPGSV,2,2,06,20,59,008,44,29,30,316,44,,,,,,,,,0*69
$GNRMC,082600.00,A,3030.1670015,N,11425.7514543,E,0.12,0.00,200524,0.0,E,R,V*4E
$GNGGA,082600.00,3030.1670015,N,11425.7514543,E,5,06,1.0,47.171,M,-13.676,M,0.0,0000*4D
$GPGSA,A,3,05,06,11,13,20,29,,,,,,,2.8,1.4,2.4,1*2E
$GPGSV,2,1,06,05,59,302,45,06,25,098,41,11,56,064,45,13,46,169,45,0*63
$GPGSV,2,2,06,20,59,008,44,29,30,316,44,,,,,,,,,0*69
$GNRMC,082601.00,A,3030.1670000,N,11425.7514549,E,0.05,0.00,200524,0.0,E,R,V*47
$GNGGA,082601.00,3030.1670000,N,11425.7514549,E,5,06,1.0,47.162,M,-13.676,M,-1.0,0000*6C
$GPGSA,A,3,05,06,11,13,20,29,,,,,,,2.8,1.4,2.4,1*2E
$GPGSV,2,1,06,05,59,302,45,06,25,098,41,11,56,064,46,13,46,169,45,0*60
$GPGSV,2,2,06,20,59,008,44,29,30,316,44,,,,,,,,,0*69
$GNRMC,082602.00,A,3030.1670011,N,11425.7514552,E,0.13,0.00,200524,0.0,E,R,V*49
$GNGGA,082602.00,3030.1670011,N,11425.7514552,E,5,06,1.0,47.164,M,-13.676,M,-1.0,0000*63
$GPGSA,A,3,05,06,11,13,20,29,,,,,,,2.8,1.4,2.4,1*2E
$GPGSV,2,1,06,05,59,302,45,06,25,098,41,11,56,064,46,13,46,169,45,0*60
$GPGSV,2,2,06,20,59,008,44,29,30,316,44,,,,,,,,,0*69
$GNRMC,082603.00,A,3030.1670036,N,11425.7514568,E,0.12,0.00,200524,0.0,E,R,V*45
$GNGGA,082603.00,3030.1670036,N,11425.7514568,E,5,06,1.0,47.168,M,-13.676,M,-1.0,0000*62
$GPGSA,A,3,05,06,11,13,20,29,,,,,,,2.8,1.4,2.4,1*2E
$GPGSV,2,1,06,05,59,302,45,06,25,098,41,11,56,064,45,13,46,169,45,0*63
$GPGSV,2,2,06,20,59,009,44,29,30,316,44,,,,,,,,,0*68
$GNRMC,082604.00,A,3030.1670035,N,11425.7514562,E,0.16,0.00,200524,0.0,E,R,V*4F
$GNGGA,082604.00,3030.1670035,N,11425.7514562,E,5,06,1.0,47.174,M,-13.676,M,-1.0,0000*61
$GPGSA,A,3,05,06,11,13,20,29,,,,,,,2.8,1.4,2.4,1*2E
$GPGSV,2,1,06,05,59,302,45,06,25,098,41,11,56,064,45,13,46,169,45,0*63
$GPGSV,2,2,06,20,59,009,43,29,30,316,44,,,,,,,,,0*6F
$GNRMC,082605.00,A,3030.1670023,N,11425.7514571,E,0.06,0.00,200524,0.0,E,R,V*4A
$GNGGA,082605.00,3030.1670023,N,11425.7514571,E,5,06,1.0,47.177,M,-13.676,M,-1.0,0000*66
$GPGSA,A,3,05,06,11,13,20,29,,,,,,,2.8,1.4,2.4,1*2E
$GPGSV,2,1,06,05,59,302,45,06,25,098,41,11,56,064,45,13,46,169,45,0*63
$GPGSV,2,2,06,20,59,009,44,29,30,316,44,,,,,,,,,0*68
$GNRMC,082606.00,A,3030.1670037,N,11425.7514585,E,0.08,0.00,200524,0.0,E,R,V*49
$GNGGA,082606.00,3030.1670037,N,11425.7514585,E,5,06,1.0,47.178,M,-13.676,M,-1.0,0000*64
$GPGSA,A,3,05,06,11,13,20,29,,,,,,,2.8,1.4,2.4,1*2E
$GPGSV,2,1,06,05,59,302,45,06,25,098,41,11,56,064,45,13,46,169,45,0*63
$GPGSV,2,2,06,20,59,009,44,29,30,316,44,,,,,,,,,0*68
$GNRMC,082607.00,A,3030.1670048,N,11425.7514581,E,0.05,0.00,200524,0.0,E,R,V*49
$GNGGA,082607.00,3030.1670048,N,11425.7514581,E,5,06,1.0,47.189,M,-13.676,M,-1.0,0000*67
$GPGSA,A,3,05,06,11,13,20,29,,,,,,,2.8,1.4,2.4,1*2E
$GPGSV,2,1,06,05,59,302,45,06,25,098,42,11,56,064,45,13,46,169,45,0*60
$GPGSV,2,2,06,20,59,009,44,29,30,316,45,,,,,,,,,0*69
$GNRMC,082608.00,A,3030.1670060,N,11425.7514593,E,0.06,0.00,200524,0.0,E,R,V*4C
$GNGGA,082608.00,3030.1670060,N,11425.7514593,E,5,06,1.0,47.197,M,-13.676,M,0.0,0000*42
$GPGSA,A,3,05,06,11,13,20,29,,,,,,,2.8,1.4,2.4,1*2E
$GPGSV,2,1,06,05,59,302,45,06,25,098,41,11,56,064,44,13,46,169,43,0*64
$GPGSV,2,2,06,20,59,009,44,29,30,316,44,,,,,,,,,0*68
$GNRMC,082609.00,A,3030.1670060,N,11425.7514602,E,0.05,0.00,200524,0.0,E,R,V*45
$GNGGA,082609.00,3030.1670060,N,11425.7514602,E,5,06,1.0,47.190,M,-13.676,M,0.0,0000*4F
$GPGSA,A,3,05,06,11,13,20,29,,,,,,,2.8,1.4,2.4,1*2E
$GPGSV,2,1,06,05,59,302,44,06,25,098,42,11,56,064,45,13,46,169,45,0*61
$GPGSV,2,2,06,20,59,009,44,29,30,316,44,,,,,,,,,0*68
$GNRMC,082610.00,A,3030.1670085,N,11425.7514625,E,0.13,0.00,200524,0.0,E,R,V*44
$GNGGA,082610.00,3030.1670085,N,11425.7514625,E,5,06,1.0,47.182,M,-13.676,M,1.0,0000*4B
$GPGSA,A,3,05,06,11,13,20,29,,,,,,,2.8,1.4,2.4,1*2E
$GPGSV,2,1,06,05,59,302,44,06,25,098,41,11,56,064,45,13,46,169,45,0*62
$GPGSV,2,2,06,20,59,009,44,29,30,316,44,,,,,,,,,0*68
$GNRMC,082611.00,A,3030.1670026,N,11425.7514575,E,0.04,0.00,200524,0.0,E,R,V*4C
$GNGGA,082611.00,3030.1670026,N,11425.7514575,E,5,06,1.0,47.183,M,-13.676,M,0.0,0000*45
$GPGSA,A,3,05,06,11,13,20,29,,,,,,,2.8,1.4,2.4,1*2E
$GPGSV,2,1,06,05,59,302,45,06,25,098,41,11,56,064,46,13,46,169,45,0*60
$GPGSV,2,2,06,20,59,009,44,29,30,316,45,,,,,,,,,0*69
$GNRMC,082612.00,A,3030.1670019,N,11425.7514587,E,0.04,0.00,200524,0.0,E,R,V*4E
$GNGGA,082612.00,3030.1670019,N,11425.7514587,E,5,06,1.0,47.176,M,-13.676,M,0.0,0000*4D
$GPGSA,A,3,05,06,11,13,20,29,,,,,,,2.8,1.4,2.4,1*2E
$GPGSV,2,1,06,05,59,302,45,06,25,099,41,11,56,064,45,13,46,169,45,0*62
$GPGSV,2,2,06,20,59,009,45,29,30,316,45,,,,,,,,,0*68
$GNRMC,082613.00,A,3030.1670002,N,11425.7514599,E,0.05,0.00,200524,0.0,E,R,V*4B
$GNGGA,082613.00,3030.1670002,N,11425.7514599,E,5,06,1.0,47.166,M,-13.676,M,0.0,0000*48
$GPGSA,A,3,05,06,11,13,20,29,,,,,,,2.8,1.4,2.4,1*2E
$GPGSV,2,1,06,05,59,302,45,06,25,099,41,11,56,064,45,13,46,169,45,0*62
$GPGSV,2,2,06,20,59,009,44,29,30,316,44,,,,,,,,,0*68
$GNRMC,082614.00,A,3030.1669983,N,11425.7514581,E,0.28,0.00,200524,0.0,E,R,V*42
$GNGGA,082614.00,3030.1669983,N,11425.7514581,E,5,06,1.0,47.170,M,-13.676,M,0.0,0000*49
$GPGSA,A,3,05,06,11,13,20,29,,,,,,,2.8,1.4,2.4,1*2E
$GPGSV,2,1,06,05,59,302,45,06,25,099,42,11,56,064,46,13,46,169,46,0*61
$GPGSV,2,2,06,20,59,009,44,29,30,316,45,,,,,,,,,0*69
$GNRMC,082615.00,A,3030.1669975,N,11425.7514598,E,0.08,0.00,200524,0.0,E,R,V*40
$GNGGA,082615.00,3030.1669975,N,11425.7514598,E,5,06,1.0,47.162,M,-13.676,M,0.0,0000*4A
$GPGSA,A,3,05,06,11,13,20,29,,,,,,,2.8,1.4,2.4,1*2E
$GPGSV,2,1,06,05,59,302,45,06,25,099,42,11,56,064,46,13,46,169,45,0*62
$GPGSV,2,2,06,20,59,009,44,29,30,315,45,,,,,,,,,0*6A
$GNRMC,082616.00,A,3030.1669954,N,11425.7514586,E,0.04,0.00,200524,0.0,E,R,V*43
$GNGGA,082616.00,3030.1669954,N,11425.7514586,E,5,06,1.0,47.163,M,-13.676,M,0.0,0000*44
$GPGSA,A,3,05,06,11,13,20,29,,,,,,,2.8,1.4,2.4,1*2E
$GPGSV,2,1,06,05,59,302,45,06,25,099,41,11,56,064,46,13,46,169,45,0*61
$GPGSV,2,2,06,20,59,009,44,29,30,315,45,,,,,,,,,0*6A
$GNRMC,082617.00,A,3030.1669908,N,11425.7514570,E,0.09,0.00,200524,0.0,E,R,V*4F
$GNGGA,082617.00,3030.1669908,N,11425.7514570,E,5,06,1.0,47.171,M,-13.676,M,-1.0,0000*6A
$GPGSA,A,3,05,06,11,13,20,29,,,,,,,2.8,1.4,2.4,1*2E
$GPGSV,2,1,06,05,59,302,45,06,25,099,41,11,56,064,45,13,46,169,45,0*62
$GPGSV,2,2,06,20,59,009,44,29,30,315,45,,,,,,,,,0*6A
$GNRMC,082618.00,A,3030.1669893,N,11425.7514556,E,0.06,0.00,200524,0.0,E,R,V*48
$GNGGA,082618.00,3030.1669893,N,11425.7514556,E,5,06,1.0,47.173,M,-13.676,M,-1.0,0000*60
$GPGSA,A,3,05,06,11,13,20,29,,,,,,,2.8,1.4,2.4,1*2E
$GPGSV,2,1,06,05,59,302,45,06,25,099,41,11,56,064,45,13,46,169,46,0*61
$GPGSV,2,2,06,20,59,009,44,29,30,315,45,,,,,,,,,0*6A
$GNRMC,082619.00,A,3030.1669858,N,11425.7514564,E,0.15,0.00,200524,0.0,E,R,V*4D
$GNGGA,082619.00,3030.1669858,N,11425.7514564,E,5,06,1.0,47.178,M,-13.676,M,-1.0,0000*6C
$GPGSA,A,3,05,06,11,13,20,29,,,,,,,2.8,1.4,2.4,1*2E
$GPGSV,2,1,06,05,59,302,45,06,25,099,41,11,56,064,45,13,46,169,45,0*62
$GPGSV,2,2,06,20,59,009,44,29,30,315,45,,,,,,,,,0*6A
$GNRMC,082620.00,A,3030.1669842,N,11425.7514546,E,0.11,0.00,200524,0.0,E,R,V*48
$GNGGA,082620.00,3030.1669842,N,11425.7514546,E,5,06,1.0,47.181,M,-13.676,M,-1.0,0000*6B
$GPGSA,A,3,05,06,11,13,20,29,,,,,,,2.8,1.4,2.4,1*2E
$GPGSV,2,1,06,05,59,302,45,06,25,099,41,11,56,065,46,13,46,169,45,0*60
$GPGSV,2,2,06,20,59,009,44,29,30,315,45,,,,,,,,,0*6A
$GNRMC,082621.00,A,3030.1669860,N,11425.7514547,E,0.08,0.00,200524,0.0,E,R,V*40
$GNGGA,082621.00,3030.1669860,N,11425.7514547,E,5,06,1.0,47.172,M,-13.676,M,-1.0,0000*67
$GPGSA,A,3,05,06,11,13,20,29,,,,,,,2.8,1.4,2.4,1*2E
$GPGSV,2,1,06,05,59,302,45,06,25,099,41,11,56,065,45,13,46,169,45,0*63
$GPGSV,2,2,06,20,59,009,45,29,30,315,45,,,,,,,,,0*6B
$GNRMC,082622.00,A,3030.1669873,N,11425.7514564,E,0.06,0.00,200524,0.0,E,R,V*4E
$GNGGA,082622.00,3030.1669873,N,11425.7514564,E,5,06,1.0,47.171,M,-13.676,M,0.0,0000*48
$GPGSA,A,3,05,06,11,13,20,29,,,,,,,2.8,1.4,2.4,1*2E
$GPGSV,2,1,06,05,59,302,45,06,25,099,41,11,56,065,46,13,46,169,45,0*60
$GPGSV,2,2,06,20,59,009,44,29,30,315,45,,,,,,,,,0*6A
$GNRMC,082623.00,A,3030.1669842,N,11425.7514544,E,0.09,0.00,200524,0.0,E,R,V*40
$GNGGA,082623.00,3030.1669842,N,11425.7514544,E,5,06,1.0,47.187,M,-13.676,M,0.0,0000*40
$GPGSA,A,3,05,06,11,13,20,29,,,,,,,2.8,1.4,2.4,1*2E
$GPGSV,2,1,06,05,59,302,46,06,25,099,41,11,56,065,45,13,46,169,46,0*63
$GPGSV,2,2,06,20,59,009,44,29,30,315,45,,,,,,,,,0*6A
$GNRMC,082624.00,A,3030.1669816,N,11425.7514523,E,0.08,0.00,200524,0.0,E,R,V*46
$GNGGA,082624.00,3030.1669816,N,11425.7514523,E,5,06,1.0,47.185,M,-13.676,M,-1.0,0000*69
$GPGSA,A,3,05,06,11,13,20,29,,,,,,,2.8,1.4,2.4,1*2E
$GPGSV,2,1,06,05,59,302,45,06,25,099,42,11,56,065,46,13,46,169,45,0*63
$GPGSV,2,2,06,20,59,009,44,29,30,315,45,,,,,,,,,0*6A
$GNRMC,082625.00,A,3030.1669845,N,11425.7514547,E,0.05,0.00,200524,0.0,E,R,V*4E
$GNGGA,082625.00,3030.1669845,N,11425.7514547,E,5,06,1.0,47.188,M,-13.676,M,0.0,0000*4D
$GPGSA,A,3,05,06,11,13,20,29,,,,,,,2.8,1.4,2.4,1*2E
$GPGSV,2,1,06,05,59,302,45,06,25,099,41,11,56,065,45,13,46,169,46,0*60
$GPGSV,2,2,06,20,59,009,44,29,30,315,45,,,,,,,,,0*6A
$GNRMC,082626.00,A,3030.1669842,N,11425.7514538,E,0.24,0.00,200524,0.0,E,R,V*41
$GNGGA,082626.00,3030.1669842,N,11425.7514538,E,5,06,1.0,47.197,M,-13.676,M,0.0,0000*4F
$GPGSA,A,3,05,06,11,13,20,29,,,,,,,2.8,1.4,2.4,1*2E
$GPGSV,2,1,06,05,59,302,45,06,25,099,41,11,56,065,46,13,46,169,45,0*60
$GPGSV,2,2,06,20,59,009,44,29,30,315,45,,,,,,,,,0*6A
$GNRMC,082627.00,A,3030.1669845,N,11425.7514519,E,0.17,0.00,200524,0.0,E,R,V*44
$GNGGA,082627.00,3030.1669845,N,11425.7514519,E,5,06,1.0,47.185,M,-13.676,M,0.0,0000*49
$GPGSA,A,3,05,06,11,13,20,29,,,,,,,2.8,1.4,2.4,1*2E
$GPGSV,2,1,06,05,59,302,45,06,25,099,41,11,56,065,46,13,46,169,45,0*60
$GPGSV,2,2,06,20,59,009,45,29,30,315,45,,,,,,,,,0*6B
$GNRMC,082628.00,A,3030.1669852,N,11425.7514523,E,0.07,0.00,200524,0.0,E,R,V*45
$GNGGA,082628.00,3030.1669852,N,11425.7514523,E,5,06,1.0,47.180,M,-13.676,M,0.0,0000*4C
$GPGSA,A,3,05,06,11,13,20,29,,,,,,,2.8,1.4,2.4,1*2E
$GPGSV,2,1,06,05,59,302,45,06,25,099,42,11,56,065,45,13,46,169,46,0*63
$GPGSV,2,2,06,20,59,009,44,29,30,315,45,,,,,,,,,0*6A
$GNRMC,082629.00,A,3030.1669851,N,11425.7514516,E,0.14,0.00,200524,0.0,E,R,V*43
$GNGGA,082629.00,3030.1669851,N,11425.7514516,E,5,06,1.0,47.190,M,-13.676,M,0.0,0000*49
$GPGSA,A,3,05,06,11,13,20,29,,,,,,,2.8,1.4,2.4,1*2E
$GPGSV,2,1,06,05,59,302,45,06,25,099,42,11,56,065,45,13,46,169,45,0*60
$GPGSV,2,2,06,20,59,009,44,29,30,315,45,,,,,,,,,0*6A
$GNRMC,082630.00,A,3030.1669857,N,11425.7514490,E,0.07,0.00,200524,0.0,E,R,V*40
$GNGGA,082630.00,3030.1669857,N,11425.7514490,E,5,06,1.0,47.189,M,-13.676,M,0.0,0000*40
$GPGSA,A,3,05,06,11,13,20,29,,,,,,,2.8,1.4,2.4,1*2E
$GPGSV,2,1,06,05,59,302,45,06,25,099,41,11,56,065,45,13,46,169,45,0*63
$GPGSV,2,2,06,20,59,009,44,29,30,315,45,,,,,,,,,0*6A
$GNRMC,082631.00,A,3030.1669828,N,11425.7514454,E,0.05,0.00,200524,0.0,E,R,V*43
$GNGGA,082631.00,3030.1669828,N,11425.7514454,E,5,06,1.0,47.191,M,-13.676,M,-1.0,0000*64
$GPGSA,A,3,05,06,11,13,20,29,,,,,,,2.8,1.4,2.4,1*2E
$GPGSV,2,1,06,05,59,302,45,06,25,099,41,11,56,065,45,13,46,169,46,0*60
$GPGSV,2,2,06,20,59,009,44,29,30,315,45,,,,,,,,,0*6A
$GNRMC,082632.00,A,3030.1669844,N,11425.7514447,E,0.12,0.00,200524,0.0,E,R,V*4E
$GNGGA,082632.00,3030.1669844,N,11425.7514447,E,5,06,1.0,47.191,M,-13.676,M,-1.0,0000*6F
$GPGSA,A,3,05,06,11,13,20,29,,,,,,,2.8,1.4,2.4,1*2E
$GPGSV,2,1,06,05,59,302,45,06,25,099,41,11,56,065,45,13,46,169,45,0*63
$GPGSV,2,2,06,20,59,009,44,29,30,315,45,,,,,,,,,0*6A
$GNRMC,082633.00,A,3030.1669833,N,11425.7514439,E,0.11,0.00,200524,0.0,E,R,V*45
$GNGGA,082633.00,3030.1669833,N,11425.7514439,E,5,06,1.0,47.186,M,-13.676,M,-1.0,0000*61
$GPGSA,A,3,05,06,11,13,20,29,,,,,,,2.8,1.4,2.4,1*2E
$GPGSV,2,1,06,05,59,302,45,06,25,099,41,11,56,065,46,13,46,169,45,0*60
$GPGSV,2,2,06,20,59,009,44,29,30,315,45,,,,,,,,,0*6A
$GNRMC,082634.00,A,3030.1669827,N,11425.7514423,E,0.11,0.00,200524,0.0,E,R,V*4C
$GNGGA,082634.00,3030.1669827,N,11425.7514423,E,5,06,1.0,47.197,M,-13.676,M,-1.0,0000*68
$GPGSA,A,3,05,06,11,13,20,29,,,,,,,2.8,1.4,2.4,1*2E
$GPGSV,2,1,06,05,59,302,45,06,25,099,41,11,56,065,46,13,46,169,45,0*60
$GPGSV,2,2,06,20,59,009,45,29,30,315,45,,,,,,,,,0*6B
$GNRMC,082635.00,A,3030.1669843,N,11425.7514421,E,0.07,0.00,200524,0.0,E,R,V*4A
$GNGGA,082635.00,3030.1669843,N,11425.7514421,E,5,06,1.0,47.192,M,-13.676,M,-1.0,0000*6C
$GPGSA,A,3,05,06,11,13,20,29,,,,,,,2.8,1.4,2.4,1*2E
$GPGSV,2,1,06,05,59,302,45,06,25,099,41,11,56,065,45,13,46,169,46,0*60
$GPGSV,2,2,06,20,59,009,45,29,30,315,45,,,,,,,,,0*6B
$GNRMC,082636.00,A,3030.1669864,N,11425.7514429,E,0.15,0.00,200524,0.0,E,R,V*47
$GNGGA,082636.00,3030.1669864,N,11425.7514429,E,5,06,1.0,47.188,M,-13.676,M,-1.0,0000*69
$GPGSA,A,3,05,06,11,13,20,29,,,,,,,2.8,1.4,2.4,1*2E
$GPGSV,2,1,06,05,59,302,45,06,25,099,41,11,56,065,45,13,46,169,45,0*63
$GPGSV,2,2,06,20,59,009,44,29,30,315,45,,,,,,,,,0*6A
$GNRMC,082637.00,A,3030.1669855,N,11425.7514424,E,0.07,0.00,200524,0.0,E,R,V*4A
$GNGGA,082637.00,3030.1669855,N,11425.7514424,E,5,06,1.0,47.188,M,-13.676,M,-1.0,0000*67
$GPGSA,A,3,05,06,11,13,20,29,,,,,,,2.8,1.4,2.4,1*2E
$GPGSV,2,1,06,05,59,302,46,06,25,099,41,11,56,065,45,13,46,169,45,0*60
$GPGSV,2,2,06,20,59,009,44,29,30,315,45,,,,,,,,,0*6A
$GNRMC,082638.00,A,3030.1669850,N,11425.7514411,E,0.08,0.00,200524,0.0,E,R,V*49
$GNGGA,082638.00,3030.1669850,N,11425.7514411,E,5,06,1.0,47.194,M,-13.676,M,-1.0,0000*66
$GPGSA,A,3,05,06,11,13,20,29,,,,,,,2.8,1.4,2.4,1*2E
$GPGSV,2,1,06,05,59,302,45,06,25,099,41,11,56,065,46,13,46,169,45,0*60
$GPGSV,2,2,06,20,59,009,44,29,30,315,45,,,,,,,,,0*6A
$GNRMC,082639.00,A,3030.1669867,N,11425.7514430,E,0.12,0.00,200524,0.0,E,R,V*44
$GNGGA,082639.00,3030.1669867,N,11425.7514430,E,5,06,1.0,47.193,M,-13.676,M,-1.0,0000*67
$GPGSA,A,3,05,06,11,13,20,29,,,,,,,2.8,1.4,2.4,1*2E
$GPGSV,2,1,06,05,59,302,45,06,24,099,41,11,56,065,46,13,46,169,45,0*61
$GPGSV,2,2,06,20,59,009,44,29,30,315,45,,,,,,,,,0*6A
$GNRMC,082640.00,A,3030.1669888,N,11425.7514448,E,0.05,0.00,200524,0.0,E,R,V*42
$GNGGA,082640.00,3030.1669888,N,11425.7514448,E,5,06,1.0,47.189,M,-13.676,M,0.0,0000*40
$GPGSA,A,3,05,06,11,13,20,29,,,,,,,2.8,1.4,2.4,1*2E
$GPGSV,2,1,06,05,59,302,45,06,24,099,41,11,56,065,45,13,46,169,45,0*62
$GPGSV,2,2,06,20,59,009,44,29,30,315,45,,,,,,,,,0*6A
$GNRMC,082641.00,A,3030.1669903,N,11425.7514461,E,0.04,0.00,200524,0.0,E,R,V*4B
$GNGGA,082641.00,3030.1669903,N,11425.7514461,E,5,06,1.0,47.185,M,-13.676,M,0.0,0000*44
$GPGSA,A,3,05,06,11,13,20,29,,,,,,,2.8,1.4,2.4,1*2E
$GPGSV,2,1,06,05,59,302,45,06,24,099,41,11,56,065,45,13,46,169,46,0*61
$GPGSV,2,2,06,20,59,009,44,29,30,315,45,,,,,,,,,0*6A
$GNRMC,082642.00,A,3030.1669965,N,11425.7514508,E,0.15,0.00,200524,0.0,E,R,V*46
$GNGGA,082642.00,3030.1669965,N,11425.7514508,E,5,06,1.0,47.182,M,-13.676,M,0.0,0000*4E
$GPGSA,A,3,05,06,11,13,20,29,,,,,,,2.8,1.4,2.4,1*2E
$GPGSV,2,1,06,05,59,302,44,06,24,099,41,11,56,065,45,13,46,169,45,0*63
$GPGSV,2,2,06,20,59,009,44,29,30,315,45,,,,,,,,,0*6A
$GNRMC,082643.00,A,3030.1669952,N,11425.7514484,E,0.03,0.00,200524,0.0,E,R,V*41
$GNGGA,082643.00,3030.1669952,N,11425.7514484,E,5,06,1.0,47.177,M,-13.676,M,0.0,0000*44
$GPGSA,A,3,05,06,11,13,20,29,,,,,,,2.8,1.4,2.4,1*2E
$GPGSV,2,1,06,05,59,303,45,06,24,099,41,11,56,065,45,13,46,169,45,0*63
$GPGSV,2,2,06,20,59,009,44,29,30,315,45,,,,,,,,,0*6A
$GNRMC,082644.00,A,3030.1669978,N,11425.7514502,E,0.16,0.00,200524,0.0,E,R,V*45
$GNGGA,082644.00,3030.1669978,N,11425.7514502,E,5,06,1.0,47.175,M,-13.676,M,0.0,0000*46
