$GNRMC,082355.00,A,3030.1668801,N,11425.7511729,E,0.19,0.00,200524,0.0,E,R,V*4F
$GNGGA,082355.00,3030.1668801,N,11425.7511729,E,5,05,1.0,46.832,M,-13.676,M,0.0,0000*4B
$GPGSA,A,3,06,11,13,15,20,29,,,,,,,2.7,1.2,2.4,1*26
$GPGSV,2,1,07,06,25,098,39,11,57,062,45,12,15,231,40,13,45,169,44,0*62
$GPGSV,2,2,07,15,24,206,41,20,60,007,45,29,29,316,43,,,,,0*50
$GNRMC,082356.00,A,3030.1668801,N,11425.7511954,E,0.10,0.00,200524,0.0,E,R,V*41
$GNGGA,082356.00,3030.1668801,N,11425.7511954,E,5,05,1.0,46.969,M,-13.676,M,0.0,0000*43
$GPGSA,A,3,06,11,13,15,20,29,,,,,,,2.7,1.2,2.4,1*26
$GPGSV,2,1,07,06,25,098,39,11,57,063,44,12,15,231,39,13,45,169,44,0*6C
$GPGSV,2,2,07,15,24,206,41,20,60,007,45,29,29,316,44,,,,,0*57
$GNRMC,082357.00,A,3030.1669327,N,11425.7511509,E,0.13,0.00,200524,0.0,E,R,V*49
$GNGGA,082357.00,3030.1669327,N,11425.7511509,E,4,06,1.0,47.370,M,-13.676,M,0.0,0000*49
$GPGSA,A,3,05,06,11,13,15,20,29,,,,,,2.4,1.1,2.2,1*25
$GPGSV,2,1,08,05,59,300,46,06,25,098,39,11,57,063,44,12,15,231,39,0*66
$GPGSV,2,2,08,13,45,169,44,15,24,206,41,20,60,007,46,29,29,316,43,0*61
$GNRMC,082358.00,A,3030.1668695,N,11425.7512149,E,0.15,0.00,200524,0.0,E,R,V*4E
$GNGGA,082358.00,3030.1668695,N,11425.7512149,E,5,06,1.0,47.235,M,-13.676,M,0.0,0000*49
$GPGSA,A,3,05,06,11,13,15,20,29,,,,,,2.4,1.1,2.2,1*25
$GPGSV,2,1,08,05,59,300,45,06,25,098,39,11,57,063,44,12,15,231,39,0*65
$GPGSV,2,2,08,13,45,169,44,15,24,206,41,20,60,007,46,29,29,316,43,0*61
$GNRMC,082359.00,A,3030.1668645,N,11425.7512176,E,0.08,0.00,200524,0.0,E,R,V*42
$GNGGA,082359.00,3030.1668645,N,11425.7512176,E,5,06,1.0,47.274,M,-13.676,M,0.0,0000*4C
$GPGSA,A,3,05,06,11,13,15,20,29,,,,,,2.4,1.1,2.2,1*25
$GPGSV,2,1,08,05,59,300,44,06,25,098,39,11,57,063,44,12,15,231,39,0*64
$GPGSV,2,2,08,13,45,169,44,15,24,206,42,20,60,007,45,29,29,316,43,0*61
$GNRMC,082400.00,A,3030.1668602,N,11425.7511961,E,0.16,0.00,200524,0.0,E,R,V*48
$GNGGA,082400.00,3030.1668602,N,11425.7511961,E,5,06,1.0,47.333,M,-13.676,M,0.0,0000*4B
$GPGSA,A,3,05,06,11,13,15,20,29,,,,,,2.4,1.1,2.2,1*25
$GPGSV,2,1,08,05,59,300,44,06,25,098,39,11,57,063,44,12,15,231,39,0*64
$GPGSV,2,2,08,13,45,169,44,15,24,206,41,20,60,007,45,29,29,316,43,0*62
$GNRMC,082401.00,A,3030.1668571,N,11425.7511863,E,0.05,0.00,200524,0.0,E,R,V*4F
$GNGGA,082401.00,3030.1668571,N,11425.7511863,E,5,06,1.0,47.253,M,-13.676,M,0.0,0000*49
$GPGSA,A,3,05,06,11,13,15,20,29,,,,,,2.4,1.1,2.2,1*25
$GPGSV,2,1,08,05,59,300,45,06,25,098,39,11,57,063,44,12,15,231,39,0*65
$GPGSV,2,2,08,13,45,169,45,15,24,206,42,20,60,007,45,29,29,316,43,0*60
$GNRMC,082402.00,A,3030.1668565,N,11425.7511769,E,0.20,0.00,200524,0.0,E,R,V*4B
$GNGGA,082402.00,3030.1668565,N,11425.7511769,E,5,06,1.0,47.228,M,-13.676,M,-1.0,0000*6A
$GPGSA,A,3,05,06,11,13,15,20,29,,,,,,2.4,1.1,2.2,1*25
$GPGSV,2,1,08,05,59,300,45,06,25,098,39,11,57,063,44,12,15,231,39,0*65
$GPGSV,2,2,08,13,45,169,45,15,24,206,41,20,60,007,45,29,29,316,43,0*63
$GNRMC,082403.00,A,3030.1668570,N,11425.7511751,E,0.19,0.00,200524,0.0,E,R,V*4F
$GNGGA,082403.00,3030.1668570,N,11425.7511751,E,5,06,1.0,47.232,M,-13.676,M,-1.0,0000*6F
$GPGSA,A,3,05,06,11,13,15,20,29,,,,,,2.4,1.1,2.2,1*25
$GPGSV,2,1,08,05,59,300,45,06,25,098,39,11,56,063,44,12,15,231,39,0*64
$GPGSV,2,2,08,13,45,169,44,15,24,206,41,20,60,007,46,29,29,316,44,0*66
$GNRMC,082404.00,A,3030.1668634,N,11425.7511638,E,0.11,0.00,200524,0.0,E,R,V*4D
$GNGGA,082404.00,3030.1668634,N,11425.7511638,E,5,06,1.0,47.256,M,-13.676,M,0.0,0000*4B
$GPGSA,A,3,05,06,11,13,15,20,29,,,,,,2.4,1.1,2.2,1*25
$GPGSV,2,1,08,05,59,300,45,06,25,098,39,11,56,063,44,12,15,231,39,0*64
$GPGSV,2,2,08,13,45,169,44,15,24,206,42,20,60,007,45,29,29,316,44,0*66
$GNRMC,082405.00,A,3030.1668635,N,11425.7511590,E,0.21,0.00,200524,0.0,E,R,V*4F
$GNGGA,082405.00,3030.1668635,N,11425.7511590,E,5,06,1.0,47.292,M,-13.676,M,-1.0,0000*6E
$GPGSA,A,3,05,06,11,13,15,20,29,,,,,,2.4,1.1,2.2,1*25
$GPGSV,2,1,08,05,59,300,45,06,25,098,39,11,56,063,44,12,15,231,39,0*64
$GPGSV,2,2,08,13,45,169,44,15,24,206,42,20,60,007,45,29,29,316,44,0*66
$GNRMC,082406.00,A,3030.1668717,N,11425.7511707,E,0.15,0.00,200524,0.0,E,R,V*46
$GNGGA,082406.00,3030.1668717,N,11425.7511707,E,5,06,1.0,47.332,M,-13.676,M,0.0,0000*47
$GPGSA,A,3,05,06,11,13,15,20,29,,,,,,2.4,1.1,2.2,1*25
$GPGSV,2,1,08,05,59,300,45,06,25,098,40,11,56,063,44,12,15,231,38,0*6B
$GPGSV,2,2,08,13,45,169,45,15,24,206,41,20,60,007,44,29,30,316,44,0*6D
$GNRMC,082407.00,A,3030.1668707,N,11425.7511733,E,0.11,0.00,200524,0.0,E,R,V*45
$GNGGA,082407.00,3030.1668707,N,11425.7511733,E,5,06,1.0,47.383,M,-13.676,M,-1.0,0000*66
$GPGSA,A,3,05,06,11,13,15,20,29,,,,,,2.4,1.1,2.2,1*25
$GPGSV,2,1,08,05,59,300,45,06,25,098,39,11,56,063,45,12,15,231,38,0*64
$GPGSV,2,2,08,13,45,169,45,15,24,206,41,20,60,007,44,29,30,316,44,0*6D
$GNRMC,082408.00,A,3030.1668753,N,11425.7511824,E,0.03,0.00,200524,0.0,E,R,V*41
$GNGGA,082408.00,3030.1668753,N,11425.7511824,E,5,06,1.0,47.347,M,-13.676,M,0.0,0000*45
$GPGSA,A,3,05,06,11,13,15,20,29,,,,,,2.4,1.1,2.2,1*25
$GPGSV,2,1,08,05,59,300,45,06,25,098,39,11,56,063,46,12,15,231,38,0*67
$GPGSV,2,2,08,13,45,169,45,15,24,206,41,20,60,007,44,29,30,316,45,0*6C
$GNRMC,082409.00,A,3030.1668708,N,11425.7511774,E,0.10,0.00,200524,0.0,E,R,V*46
$GNGGA,082409.00,3030.1668708,N,11425.7511774,E,5,06,1.0,47.366,M,-13.676,M,-1.0,0000*6F
$GPGSA,A,3,05,06,11,13,15,20,29,,,,,,2.4,1.1,2.2,1*25
$GPGSV,2,1,08,05,59,300,46,06,25,098,41,11,56,063,46,12,15,231,38,0*6B
$GPGSV,2,2,08,13,45,169,45,15,24,206,41,20,60,007,45,29,30,316,44,0*6C
$GNRMC,082410.00,A,3030.1668759,N,11425.7511790,E,0.06,0.00,200524,0.0,E,R,V*47
$GNGGA,082410.00,3030.1668759,N,11425.7511790,E,5,06,1.0,47.358,M,-13.676,M,0.0,0000*48
$GPGSA,A,3,05,06,11,13,15,20,29,,,,,,2.4,1.1,2.2,1*25
$GPGSV,2,1,08,05,59,300,46,06,25,098,41,11,56,063,46,12,15,231,38,0*6B
$GPGSV,2,2,08,13,45,169,45,15,24,206,41,20,60,007,45,29,30,316,44,0*6C
$GNRMC,082411.00,A,3030.1668841,N,11425.7511847,E,0.17,0.00,200524,0.0,E,R,V*45
$GNGGA,082411.00,3030.1668841,N,11425.7511847,E,5,06,1.0,47.361,M,-13.676,M,0.0,0000*40
$GPGSA,A,3,05,06,11,13,15,20,29,,,,,,2.4,1.1,2.2,1*25
$GPGSV,2,1,08,05,59,300,45,06,25,098,41,11,56,063,46,12,15,231,38,0*68
$GPGSV,2,2,08,13,45,169,45,15,24,206,41,20,60,007,45,29,30,316,45,0*6D
$GNRMC,082412.00,A,3030.1668921,N,11425.7511895,E,0.05,0.00,200524,0.0,E,R,V*4D
$GNGGA,082412.00,3030.1668921,N,11425.7511895,E,5,06,1.0,47.381,M,-13.676,M,1.0,0000*44
$GPGSA,A,3,05,06,11,13,15,20,29,,,,,,2.4,1.1,2.2,1*25
$GPGSV,2,1,08,05,59,300,45,06,25,098,41,11,56,063,46,12,15,231,38,0*68
$GPGSV,2,2,08,13,45,169,45,15,24,206,42,20,60,007,44,29,30,316,45,0*6F
$GNRMC,082413.00,A,3030.1668955,N,11425.7511987,E,0.13,0.00,200524,0.0,E,R,V*4A
$GNGGA,082413.00,3030.1668955,N,11425.7511987,E,5,06,1.0,47.381,M,-13.676,M,0.0,0000*45
$GPGSA,A,3,05,06,11,13,15,20,29,,,,,,2.4,1.1,2.2,1*25
$GPGSV,2,1,08,05,59,300,45,06,25,098,41,11,56,063,46,12,15,231,38,0*68
$GPGSV,2,2,08,13,45,169,45,15,24,206,41,20,60,007,44,29,30,316,45,0*6C
$GNRMC,082414.00,A,3030.1669042,N,11425.7512123,E,0.08,0.00,200524,0.0,E,R,V*4C
$GNGGA,082414.00,3030.1669042,N,11425.7512123,E,5,06,1.0,47.363,M,-13.676,M,1.0,0000*44
$GPGSA,A,3,05,06,11,13,15,20,29,,,,,,2.4,1.1,2.2,1*25
$GPGSV,2,1,08,05,59,300,45,06,25,098,42,11,56,063,45,12,15,231,38,0*68
$GPGSV,2,2,08,13,45,169,45,15,24,206,42,20,60,007,44,29,30,316,44,0*6E
$GNRMC,082415.00,A,3030.1669100,N,11425.7512237,E,0.06,0.00,200524,0.0,E,R,V*42
$GNGGA,082415.00,3030.1669100,N,11425.7512237,E,5,06,1.0,47.373,M,-13.676,M,0.0,0000*44
$GPGSA,A,3,05,06,11,13,15,20,29,,,,,,2.4,1.1,2.2,1*25
$GPGSV,2,1,08,05,59,300,46,06,25,098,42,11,56,063,45,12,15,231,38,0*6B
$GPGSV,2,2,08,13,45,169,45,15,24,206,42,20,60,007,44,29,30,316,44,0*6E
$GNRMC,082416.00,A,3030.1669150,N,11425.7512338,E,0.17,0.00,200524,0.0,E,R,V*4A
$GNGGA,082416.00,3030.1669150,N,11425.7512338,E,5,06,1.0,47.370,M,-13.676,M,-1.0,0000*63
$GPGSA,A,3,05,06,11,13,15,20,29,,,,,,2.4,1.1,2.2,1*25
$GPGSV,2,1,08,05,59,300,45,06,25,098,42,11,56,063,46,12,15,231,38,0*6B
$GPGSV,2,2,08,13,45,169,45,15,24,206,42,20,60,007,45,29,30,316,45,0*6E
$GNRMC,082417.00,A,3030.1669255,N,11425.7512503,E,0.09,0.00,200524,0.0,E,R,V*4C
$GNGGA,082417.00,3030.1669255,N,11425.7512503,E,5,06,1.0,47.372,M,-13.676,M,0.0,0000*44
$GPGSA,A,3,05,06,11,13,15,20,29,,,,,,2.4,1.1,2.2,1*25
$GPGSV,2,1,08,05,59,300,45,06,25,098,42,11,56,063,46,12,15,231,39,0*6A
$GPGSV,2,2,08,13,45,169,45,15,24,206,42,20,60,007,45,29,30,316,44,0*6F
$GNRMC,082418.00,A,3030.1669290,N,11425.7512645,E,0.08,0.00,200524,0.0,E,R,V*4A
$GNGGA,082418.00,3030.1669290,N,11425.7512645,E,5,06,1.0,47.365,M,-13.676,M,-1.0,0000*69
$GPGSA,A,3,05,06,11,13,15,20,29,,,,,,2.4,1.1,2.2,1*25
$GPGSV,2,1,08,05,59,300,45,06,25,098,42,11,56,063,46,12,15,231,38,0*6B
$GPGSV,2,2,08,13,45,169,45,15,24,206,42,20,60,007,44,29,30,316,44,0*6E
$GNRMC,082419.00,A,3030.1669336,N,11425.7512774,E,0.09,0.00,200524,0.0,E,R,V*44
$GNGGA,082419.00,3030.1669336,N,11425.7512774,E,5,06,1.0,47.358,M,-13.676,M,0.0,0000*44
$GPGSA,A,3,05,06,11,13,15,20,29,,,,,,2.4,1.1,2.2,1*25
$GPGSV,2,1,08,05,59,300,45,06,25,098,42,11,56,063,46,12,15,231,39,0*6A
$GPGSV,2,2,08,13,45,169,45,15,24,206,42,20,60,007,44,29,30,316,44,0*6E
$GNRMC,082420.00,A,3030.1669283,N,11425.7512863,E,0.03,0.00,200524,0.0,E,R,V*42
$GNGGA,082420.00,3030.1669283,N,11425.7512863,E,5,06,1.0,47.356,M,-13.676,M,-1.0,0000*6A
$GPGSA,A,3,05,06,11,13,15,20,29,,,,,,2.4,1.1,2.2,1*25
$GPGSV,2,1,08,05,59,300,45,06,25,098,42,11,56,063,45,12,15,231,39,0*69
$GPGSV,2,2,08,13,45,169,45,15,24,206,42,20,60,007,45,29,30,316,44,0*6F
$GNRMC,082421.00,A,3030.1669349,N,11425.7513022,E,0.14,0.00,200524,0.0,E,R,V*4E
$GNGGA,082421.00,3030.1669349,N,11425.7513022,E,5,06,1.0,47.338,M,-13.676,M,0.0,0000*44
$GPGSA,A,3,05,06,11,13,15,20,29,,,,,,2.4,1.1,2.2,1*25
$GPGSV,2,1,08,05,59,300,45,06,25,098,42,11,56,063,45,12,15,231,39,0*69
$GPGSV,2,2,08,13,45,169,45,15,24,206,42,20,60,007,45,29,30,316,44,0*6F
$GNRMC,082422.00,A,3030.1669283,N,11425.7513094,E,0.13,0.00,200524,0.0,E,R,V*40
$GNGGA,082422.00,3030.1669283,N,11425.7513094,E,5,06,1.0,47.343,M,-13.676,M,-1.0,0000*6D
$GPGSA,A,3,05,06,11,13,15,20,29,,,,,,2.4,1.1,2.2,1*25
$GPGSV,2,1,08,05,59,300,44,06,25,098,42,11,56,063,46,12,15,231,39,0*6B
$GPGSV,2,2,08,13,45,169,45,15,24,206,42,20,60,007,44,29,30,316,44,0*6E
$GNRMC,082423.00,A,3030.1669287,N,11425.7513190,E,0.04,0.00,200524,0.0,E,R,V*46
$GNGGA,082423.00,3030.1669287,N,11425.7513190,E,5,06,1.0,47.320,M,-13.676,M,0.0,0000*44
$GPGSA,A,3,05,06,11,13,15,20,29,,,,,,2.4,1.1,2.2,1*25
$GPGSV,2,1,08,05,59,300,44,06,25,098,42,11,56,063,46,12,15,231,38,0*6A
$GPGSV,2,2,08,13,45,169,45,15,24,206,42,20,60,007,44,29,30,316,44,0*6E
$GNRMC,082424.00,A,3030.1669288,N,11425.7513289,E,0.13,0.00,200524,0.0,E,R,V*43
$GNGGA,082424.00,3030.1669288,N,11425.7513289,E,5,06,1.0,47.309,M,-13.676,M,0.0,0000*4C
$GPGSA,A,3,05,06,11,13,15,20,29,,,,,,2.4,1.1,2.2,1*25
$GPGSV,2,1,08,05,59,300,45,06,25,098,41,11,56,063,46,12,15,231,39,0*69
$GPGSV,2,2,08,13,45,169,45,15,24,206,41,20,60,007,45,29,30,316,44,0*6C
$GNRMC,082425.00,A,3030.1669320,N,11425.7513364,E,0.23,0.00,200524,0.0,E,R,V*40
$GNGGA,082425.00,3030.1669320,N,11425.7513364,E,5,06,1.0,47.291,M,-13.676,M,1.0,0000*4D
$GPGSA,A,3,05,06,11,13,15,20,29,,,,,,2.4,1.1,2.2,1*25
$GPGSV,2,1,08,05,59,300,45,06,25,098,41,11,56,063,45,12,15,231,38,0*6B
$GPGSV,2,2,08,13,45,169,45,15,24,206,42,20,60,007,45,29,30,316,44,0*6F
$GNRMC,082426.00,A,3030.1669286,N,11425.7513410,E,0.19,0.00,200524,0.0,E,R,V*43
$GNGGA,082426.00,3030.1669286,N,11425.7513410,E,5,06,1.0,47.301,M,-13.676,M,0.0,0000*4E
$GPGSA,A,3,05,06,11,13,15,20,29,,,,,,2.4,1.1,2.2,1*25
$GPGSV,2,1,08,05,59,300,45,06,25,098,41,11,56,063,46,12,15,231,38,0*68
$GPGSV,2,2,08,13,45,169,45,15,24,206,42,20,60,007,45,29,30,316,43,0*68
$GNRMC,082427.00,A,3030.1669303,N,11425.7513486,E,0.07,0.00,200524,0.0,E,R,V*4E
$GNGGA,082427.00,3030.1669303,N,11425.7513486,E,5,06,1.0,47.279,M,-13.676,M,1.0,0000*43
$GPGSA,A,3,05,06,11,13,15,20,29,,,,,,2.4,1.1,2.2,1*25
$GPGSV,2,1,08,05,59,300,45,06,25,098,41,11,56,063,46,12,15,231,39,0*69
$GPGSV,2,2,08,13,45,169,45,15,24,206,42,20,60,007,44,29,30,316,44,0*6E
$GNRMC,082428.00,A,3030.1669267,N,11425.7513522,E,0.11,0.00,200524,0.0,E,R,V*4A
$GNGGA,082428.00,3030.1669267,N,11425.7513522,E,5,06,1.0,47.286,M,-13.676,M,0.0,0000*41
$GPGSA,A,3,05,06,11,13,15,20,29,,,,,,2.4,1.1,2.2,1*25
$GPGSV,2,1,08,05,59,300,45,06,25,098,42,11,56,063,46,12,15,231,39,0*6A
$GPGSV,2,2,08,13,45,169,45,15,24,206,42,20,60,007,44,29,30,316,44,0*6E
$GNRMC,082429.00,A,3030.1669254,N,11425.7513581,E,0.09,0.00,200524,0.0,E,R,V*4B
$GNGGA,082429.00,3030.1669254,N,11425.7513581,E,5,06,1.0,47.282,M,-13.676,M,-1.0,0000*61
$GPGSA,A,3,05,06,11,13,15,20,29,,,,,,2.4,1.1,2.2,1*25
$GPGSV,2,1,08,05,59,300,45,06,25,098,42,11,56,063,46,12,15,231,39,0*6A
$GPGSV,2,2,08,13,45,169,45,15,24,206,42,20,60,007,44,29,30,316,44,0*6E
$GNRMC,082430.00,A,3030.1669310,N,11425.7513644,E,0.07,0.00,200524,0.0,E,R,V*46
$GNGGA,082430.00,3030.1669310,N,11425.7513644,E,5,06,1.0,47.260,M,-13.676,M,0.0,0000*42
$GPGSA,A,3,05,06,11,13,15,20,29,,,,,,2.4,1.1,2.2,1*25
$GPGSV,2,1,08,05,59,300,45,06,25,098,42,11,56,063,46,12,15,231,39,0*6A
$GPGSV,2,2,08,13,45,169,45,15,24,206,42,20,60,007,44,29,30,316,44,0*6E
$GNRMC,082431.00,A,3030.1669284,N,11425.7513679,E,0.17,0.00,200524,0.0,E,R,V*44
$GNGGA,082431.00,3030.1669284,N,11425.7513679,E,5,06,1.0,47.255,M,-13.676,M,-1.0,0000*6B
$GPGSA,A,3,05,06,11,13,15,20,29,,,,,,2.4,1.1,2.2,1*25
$GPGSV,2,1,08,05,59,300,45,06,25,098,42,11,56,063,46,12,15,231,39,0*6A
$GPGSV,2,2,08,13,45,169,45,15,24,206,42,20,60,007,44,29,30,316,44,0*6E
$GNRMC,082432.00,A,3030.1669340,N,11425.7513765,E,0.05,0.00,200524,0.0,E,R,V*41
$GNGGA,082432.00,3030.1669340,N,11425.7513765,E,5,06,1.0,47.246,M,-13.676,M,0.0,0000*43
$GPGSA,A,3,05,06,11,13,15,20,29,,,,,,2.4,1.1,2.2,1*25
$GPGSV,2,1,08,05,59,300,45,06,25,098,42,11,56,063,46,12,15,231,39,0*6A
$GPGSV,2,2,08,13,45,169,45,15,24,206,42,20,60,007,45,29,30,316,44,0*6F
$GNRMC,082433.00,A,3030.1669348,N,11425.7513785,E,0.05,0.00,200524,0.0,E,R,V*46
$GNGGA,082433.00,3030.1669348,N,11425.7513785,E,5,06,1.0,47.257,M,-13.676,M,-1.0,0000*68
$GPGSA,A,3,05,06,11,13,15,20,29,,,,,,2.4,1.1,2.2,1*25
$GPGSV,2,1,08,05,59,300,45,06,25,098,42,11,56,063,47,12,15,231,38,0*6A
$GPGSV,2,2,08,13,45,169,45,15,24,206,42,20,60,007,45,29,30,316,44,0*6F
$GNRMC,082434.00,A,3030.1669371,N,11425.7513815,E,0.05,0.00,200524,0.0,E,R,V*4D
$GNGGA,082434.00,3030.1669371,N,11425.7513815,E,5,06,1.0,47.253,M,-13.676,M,0.0,0000*4B
$GPGSA,A,3,05,06,11,13,15,20,29,,,,,,2.4,1.1,2.2,1*25
$GPGSV,2,1,08,05,59,300,45,06,25,098,42,11,56,063,46,12,15,231,38,0*6B
$GPGSV,2,2,08,13,45,169,45,15,24,206,42,20,60,007,45,29,30,316,44,0*6F
$GNRMC,082435.00,A,3030.1669418,N,11425.7513878,E,0.09,0.00,200524,0.0,E,R,V*43
$GNGGA,082435.00,3030.1669418,N,11425.7513878,E,5,06,1.0,47.258,M,-13.676,M,0.0,0000*42
$GPGSA,A,3,05,06,11,13,15,20,29,,,,,,2.4,1.1,2.2,1*25
$GPGSV,2,1,08,05,59,301,45,06,25,098,41,11,56,063,46,12,15,231,38,0*69
$GPGSV,2,2,08,13,45,169,45,15,24,206,42,20,60,007,45,29,30,316,44,0*6F
$GNRMC,082436.00,A,3030.1669452,N,11425.7513875,E,0.10,0.00,200524,0.0,E,R,V*4B
$GNGGA,082436.00,3030.1669452,N,11425.7513875,E,5,06,1.0,47.249,M,-13.676,M,1.0,0000*43
$GPGSA,A,3,05,06,11,13,15,20,29,,,,,,2.4,1.1,2.2,1*25
$GPGSV,2,1,08,05,59,301,45,06,25,098,41,11,56,063,45,12,15,231,38,0*6A
$GPGSV,2,2,08,13,45,169,45,15,24,206,42,20,60,007,44,29,30,316,44,0*6E
$GNRMC,082437.00,A,3030.1669472,N,11425.7513910,E,0.12,0.00,200524,0.0,E,R,V*48
$GNGGA,082437.00,3030.1669472,N,11425.7513910,E,5,06,1.0,47.251,M,-13.676,M,0.0,0000*4A
$GPGSA,A,3,05,06,11,13,15,20,29,,,,,,2.4,1.1,2.2,1*25
$GPGSV,2,1,08,05,59,301,45,06,25,098,41,11,56,063,46,12,15,231,38,0*69
$GPGSV,2,2,08,13,45,169,45,15,24,206,42,20,60,007,45,29,30,316,44,0*6F
$GNRMC,082438.00,A,3030.1669525,N,11425.7513955,E,0.11,0.00,200524,0.0,E,R,V*46
$GNGGA,082438.00,3030.1669525,N,11425.7513955,E,5,06,1.0,47.255,M,-13.676,M,1.0,0000*42
$GPGSA,A,3,05,06,11,13,15,20,29,,,,,,2.4,1.1,2.2,1*25
$GPGSV,2,1,08,05,59,301,45,06,25,098,41,11,56,063,46,12,15,231,38,0*69
$GPGSV,2,2,08,13,45,169,45,15,24,206,42,20,60,007,45,29,30,316,44,0*6F
$GNRMC,082439.00,A,3030.1669517,N,11425.7513923,E,0.18,0.00,200524,0.0,E,R,V*4E
$GNGGA,082439.00,3030.1669517,N,11425.7513923,E,5,06,1.0,47.262,M,-13.676,M,0.0,0000*46
$GPGSA,A,3,05,06,11,13,15,20,29,,,,,,2.4,1.1,2.2,1*25
$GPGSV,2,1,07,05,59,301,45,06,25,098,41,11,56,063,46,13,45,169,45,0*66
$GPGSV,2,2,07,15,24,206,42,20,60,007,45,29,30,316,44,,,,,0*5C
$GNRMC,082440.00,A,3030.1669565,N,11425.7513973,E,0.08,0.00,200524,0.0,E,R,V*41
$GNGGA,082440.00,3030.1669565,N,11425.7513973,E,5,06,1.0,47.242,M,-13.676,M,1.0,0000*4B
$GPGSA,A,3,05,06,11,13,15,20,29,,,,,,2.4,1.1,2.2,1*25
$GPGSV,2,1,07,05,59,301,45,06,25,098,41,11,56,063,46,13,45,169,45,0*66
$GPGSV,2,2,07,15,24,206,42,20,60,007,45,29,30,316,44,,,,,0*5C
$GNRMC,082441.00,A,3030.1669585,N,11425.7514009,E,0.07,0.00,200524,0.0,E,R,V*42
$GNGGA,082441.00,3030.1669585,N,11425.7514009,E,5,06,1.0,47.245,M,-13.676,M,0.0,0000*41
$GPGSA,A,3,05,06,11,13,15,20,29,,,,,,2.4,1.1,2.2,1*25
$GPGSV,2,1,07,05,59,301,45,06,25,098,41,11,56,063,46,13,45,169,45,0*66
$GPGSV,2,2,07,15,24,206,42,20,60,007,45,29,30,316,44,,,,,0*5C
$GNRMC,082442.00,A,3030.1669611,N,11425.7514045,E,0.05,0.00,200524,0.0,E,R,V*45
$GNGGA,082442.00,3030.1669611,N,11425.7514045,E,5,06,1.0,47.240,M,-13.676,M,-1.0,0000*6D
$GPGSA,A,3,05,06,11,13,15,20,29,,,,,,2.4,1.1,2.2,1*25
$GPGSV,2,1,07,05,59,301,45,06,25,098,41,11,56,063,46,13,45,169,45,0*66
$GPGSV,2,2,07,15,24,206,42,20,60,007,44,29,30,316,44,,,,,0*5D
$GNRMC,082443.00,A,3030.1669635,N,11425.7514092,E,0.08,0.00,200524,0.0,E,R,V*45
$GNGGA,082443.00,3030.1669635,N,11425.7514092,E,5,06,1.0,47.238,M,-13.676,M,-1.0,0000*6F
$GPGSA,A,3,05,06,11,13,15,20,29,,,,,,2.4,1.1,2.2,1*25
$GPGSV,2,1,07,05,59,301,45,06,25,098,41,11,56,063,47,13,45,169,45,0*67
$GPGSV,2,2,07,15,24,206,42,20,60,007,44,29,30,316,44,,,,,0*5D
$GNRMC,082444.00,A,3030.1669635,N,11425.7514125,E,0.20,0.00,200524,0.0,E,R,V*45
$GNGGA,082444.00,3030.1669635,N,11425.7514125,E,5,06,1.0,47.227,M,-13.676,M,-1.0,0000*6B
$GPGSA,A,3,05,06,11,13,15,20,29,,,,,,2.4,1.1,2.2,1*25
$GPGSV,2,1,07,05,59,301,45,06,25,098,41,11,56,063,46,13,45,169,45,0*66
$GPGSV,2,2,07,15,24,206,42,20,60,007,44,29,30,316,44,,,,,0*5D
$GNRMC,082445.00,A,3030.1669652,N,11425.7514174,E,0.03,0.00,200524,0.0,E,R,V*40
$GNGGA,082445.00,3030.1669652,N,11425.7514174,E,5,06,1.0,47.205,M,-13.676,M,-1.0,0000*6F
$GPGSA,A,3,05,06,11,13,15,20,29,,,,,,2.4,1.1,2.2,1*25
$GPGSV,2,1,07,05,59,301,45,06,25,098,41,11,56,063,46,13,45,169,45,0*66
$GPGSV,2,2,07,15,24,206,42,20,60,008,44,29,30,316,44,,,,,0*52
$GNRMC,082446.00,A,3030.1669664,N,11425.7514205,E,0.06,0.00,200524,0.0,E,R,V*46
$GNGGA,082446.00,3030.1669664,N,11425.7514205,E,5,06,1.0,47.199,M,-13.676,M,-1.0,0000*6A
$GPGSA,A,3,05,06,11,13,15,20,29,,,,,,2.4,1.1,2.2,1*25
$GPGSV,2,1,07,05,59,301,45,06,25,098,41,11,56,063,46,13,45,169,45,0*66
$GPGSV,2,2,07,15,24,206,42,20,60,008,44,29,30,316,44,,,,,0*52
$GNRMC,082447.00,A,3030.1669685,N,11425.7514264,E,0.09,0.00,200524,0.0,E,R,V*40
$GNGGA,082447.00,3030.1669685,N,11425.7514264,E,5,06,1.0,47.178,M,-13.676,M,0.0,0000*40
$GPGSA,A,3,05,06,11,13,15,20,29,,,,,,2.4,1.1,2.2,1*25
$GPGSV,2,1,07,05,59,301,45,06,25,098,42,11,56,063,46,13,45,169,45,0*65
$GPGSV,2,2,07,15,24,206,42,20,60,008,44,29,30,316,44,,,,,0*52
$GNRMC,082448.00,A,3030.1669671,N,11425.7514273,E,0.09,0.00,200524,0.0,E,R,V*42
$GNGGA,082448.00,3030.1669671,N,11425.7514273,E,5,06,1.0,47.158,M,-13.676,M,0.0,0000*40
$GPGSA,A,3,05,06,11,13,15,20,29,,,,,,2.4,1.1,2.2,1*25
$GPGSV,2,1,07,05,59,301,45,06,25,098,41,11,56,063,46,13,45,169,45,0*66
$GPGSV,2,2,07,15,25,206,42,20,60,008,44,29,30,316,44,,,,,0*53
$GNRMC,082449.00,A,3030.1669641,N,11425.7514308,E,0.04,0.00,200524,0.0,E,R,V*40
$GNGGA,082449.00,3030.1669641,N,11425.7514308,E,5,06,1.0,47.148,M,-13.676,M,-1.0,0000*62
$GPGSA,A,3,05,06,11,13,15,20,29,,,,,,2.4,1.1,2.2,1*25
$GPGSV,2,1,07,05,59,301,45,06,25,098,41,11,56,063,46,13,45,169,45,0*66
$GPGSV,2,2,07,15,25,206,42,20,60,008,44,29,30,316,44,,,,,0*53
$GNRMC,082450.00,A,3030.1669663,N,11425.7514327,E,0.10,0.00,200524,0.0,E,R,V*40
$GNGGA,082450.00,3030.1669663,N,11425.7514327,E,5,06,1.0,47.128,M,-13.676,M,0.0,0000*4D
$GPGSA,A,3,05,06,11,13,15,20,29,,,,,,2.4,1.1,2.2,1*25
$GPGSV,2,1,07,05,59,301,45,06,25,098,41,11,56,063,46,13,45,169,45,0*66
$GPGSV,2,2,07,15,25,206,42,20,60,008,44,29,30,316,44,,,,,0*53
$GNRMC,082451.00,A,3030.1669659,N,11425.7514335,E,0.06,0.00,200524,0.0,E,R,V*4C
$GNGGA,082451.00,3030.1669659,N,11425.7514335,E,5,06,1.0,47.111,M,-13.676,M,0.0,0000*4C
$GPGSA,A,3,05,06,11,13,15,20,29,,,,,,2.4,1.1,2.2,1*25
$GPGSV,2,1,07,05,59,301,44,06,25,098,41,11,56,063,46,13,45,169,45,0*67
$GPGSV,2,2,07,15,25,206,42,20,60,008,44,29,30,316,44,,,,,0*53
$GNRMC,082452.00,A,3030.1669660,N,11425.7514366,E,0.10,0.00,200524,0.0,E,R,V*44
$GNGGA,082452.00,3030.1669660,N,11425.7514366,E,5,06,1.0,47.103,M,-13.676,M,0.0,0000*40
$GPGSA,A,3,05,06,11,13,15,20,29,,,,,,2.4,1.1,2.2,1*25
$GPGSV,2,1,07,05,59,301,45,06,25,098,42,11,56,063,46,13,45,169,45,0*65
$GPGSV,2,2,07,15,25,206,42,20,60,008,44,29,30,316,44,,,,,0*53
$GNRMC,082453.00,A,3030.1669659,N,11425.7514371,E,0.11,0.00,200524,0.0,E,R,V*48
$GNGGA,082453.00,3030.1669659,N,11425.7514371,E,5,06,1.0,47.088,M,-13.676,M,0.0,0000*4F
$GPGSA,A,3,05,06,11,13,15,20,29,,,,,,2.4,1.1,2.2,1*25
$GPGSV,2,1,07,05,59,301,45,06,25,098,41,11,56,063,46,13,45,169,45,0*66
$GPGSV,2,2,07,15,25,206,42,20,60,008,45,29,30,316,44,,,,,0*52
$GNRMC,082454.00,A,3030.1669680,N,11425.7514368,E,0.20,0.00,200524,0.0,E,R,V*41
$GNGGA,082454.00,3030.1669680,N,11425.7514368,E,5,06,1.0,47.067,M,-13.676,M,0.0,0000*45
$GPGSA,A,3,05,06,11,13,15,20,29,,,,,,2.4,1.1,2.2,1*25
$GPGSV,2,1,07,05,59,301,45,06,25,098,42,11,56,063,46,13,45,169,45,0*65
$GPGSV,2,2,07,15,25,206,42,20,60,008,44,29,30,316,44,,,,,0*53
$GNRMC,082455.00,A,3030.1669638,N,11425.7514314,E,0.03,0.00,200524,0.0,E,R,V*49
$GNGGA,082455.00,3030.1669638,N,11425.7514314,E,5,06,1.0,47.069,M,-13.676,M,-1.0,0000*6E
$GPGSA,A,3,05,06,11,13,15,20,29,,,,,,2.4,1.1,2.2,1*25
$GPGSV,2,1,07,05,59,301,45,06,25,098,42,11,56,063,46,13,45,169,45,0*65
$GPGSV,2,2,07,15,25,206,42,20,60,008,44,29,30,316,44,,,,,0*53
$GNRMC,082456.00,A,3030.1669619,N,11425.7514281,E,0.07,0.00,200524,0.0,E,R,V*40
$GNGGA,082456.00,3030.1669619,N,11425.7514281,E,5,06,1.0,47.074,M,-13.676,M,-1.0,0000*6F
$GPGSA,A,3,05,06,11,13,15,20,29,,,,,,2.4,1.1,2.2,1*25
$GPGSV,2,1,07,05,59,301,45,06,25,098,41,11,56,063,46,13,45,169,46,0*65
$GPGSV,2,2,07,15,25,206,42,20,60,008,44,29,30,316,44,,,,,0*53
$GNRMC,082457.00,A,3030.1669593,N,11425.7514262,E,0.14,0.00,200524,0.0,E,R,V*4F
$GNGGA,082457.00,3030.1669593,N,11425.7514262,E,5,06,1.0,47.095,M,-13.676,M,-1.0,0000*6D
$GPGSA,A,3,05,06,11,13,15,20,29,,,,,,2.4,1.1,2.2,1*25
$GPGSV,2,1,07,05,59,301,45,06,25,098,41,11,56,063,45,13,45,169,46,0*66
$GPGSV,2,2,07,15,25,206,42,20,60,008,44,29,30,316,44,,,,,0*53
$GNRMC,082458.00,A,3030.1669563,N,11425.7514262,E,0.05,0.00,200524,0.0,E,R,V*4F
$GNGGA,082458.00,3030.1669563,N,11425.7514262,E,5,06,1.0,47.086,M,-13.676,M,-1.0,0000*6F
$GPGSA,A,3,05,06,11,13,15,20,29,,,,,,2.4,1.1,2.2,1*25
$GPGSV,2,1,07,05,59,301,45,06,25,098,42,11,56,063,45,13,45,169,46,0*65
$GPGSV,2,2,07,15,25,206,42,20,60,008,44,29,30,316,45,,,,,0*52
$GNRMC,082459.00,A,3030.1669557,N,11425.7514245,E,0.09,0.00,200524,0.0,E,R,V*40
$GNGGA,082459.00,3030.1669557,N,11425.7514245,E,5,06,1.0,47.082,M,-13.676,M,-1.0,0000*68
$GPGSA,A,3,05,06,11,13,15,20,29,,,,,,2.4,1.1,2.2,1*25
$GPGSV,2,1,07,05,59,301,45,06,25,098,41,11,56,063,45,13,45,169,45,0*65
$GPGSV,2,2,07,15,25,206,42,20,60,008,44,29,30,316,44,,,,,0*53
$GNRMC,082500.00,A,3030.1669545,N,11425.7514239,E,0.06,0.00,200524,0.0,E,R,V*4A
$GNGGA,082500.00,3030.1669545,N,11425.7514239,E,5,06,1.0,47.085,M,-13.676,M,-1.0,0000*6A
$GPGSA,A,3,05,06,11,13,15,20,29,,,,,,2.4,1.1,2.2,1*25
$GPGSV,2,1,07,05,59,301,45,06,25,098,41,11,56,063,46,13,45,169,45,0*66
$GPGSV,2,2,07,15,25,206,42,20,60,008,44,29,30,316,45,,,,,0*52
$GNRMC,082501.00,A,3030.1669519,N,11425.7514193,E,0.09,0.00,200524,0.0,E,R,V*4E
$GNGGA,082501.00,3030.1669519,N,11425.7514193,E,5,06,1.0,47.089,M,-13.676,M,-1.0,0000*6D
$GPGSA,A,3,05,06,11,13,15,20,29,,,,,,2.4,1.1,2.2,1*25
$GPGSV,2,1,07,05,59,301,45,06,25,098,42,11,56,063,46,13,45,169,46,0*66
$GPGSV,2,2,07,15,25,206,42,20,60,008,44,29,30,316,44,,,,,0*53
$GNRMC,082502.00,A,3030.1669516,N,11425.7514209,E,0.08,0.00,200524,0.0,E,R,V*43
$GNGGA,082502.00,3030.1669516,N,11425.7514209,E,5,06,1.0,47.091,M,-13.676,M,0.0,0000*44
$GPGSA,A,3,05,06,11,13,15,20,29,,,,,,2.4,1.1,2.2,1*25
$GPGSV,2,1,07,05,59,301,45,06,25,098,42,11,56,063,47,13,45,169,45,0*64
$GPGSV,2,2,07,15,25,206,42,20,60,008,44,29,30,316,44,,,,,0*53
$GNRMC,082503.00,A,3030.1669508,N,11425.7514200,E,0.06,0.00,200524,0.0,E,R,V*4A
$GNGGA,082503.00,3030.1669508,N,11425.7514200,E,5,06,1.0,47.083,M,-13.676,M,0.0,0000*40
$GPGSA,A,3,05,06,11,13,15,20,29,,,,,,2.4,1.1,2.2,1*25
$GPGSV,2,1,07,05,59,301,46,06,25,098,41,11,56,063,46,13,45,169,45,0*65
$GPGSV,2,2,07,15,25,206,42,20,60,008,44,29,30,316,44,,,,,0*53
$GNRMC,082504.00,A,3030.1669486,N,11425.7514189,E,0.02,0.00,200524,0.0,E,R,V*4C
$GNGGA,082504.00,3030.1669486,N,11425.7514189,E,5,06,1.0,47.094,M,-13.676,M,0.0,0000*44
$GPGSA,A,3,05,06,11,13,15,20,29,,,,,,2.4,1.1,2.2,1*25
$GPGSV,2,1,07,05,59,301,46,06,25,098,42,11,56,063,46,13,45,169,45,0*66
$GPGSV,2,2,07,15,25,206,42,20,60,008,44,29,30,316,44,,,,,0*53
$GNRMC,082505.00,A,3030.1669483,N,11425.7514179,E,0.11,0.00,200524,0.0,E,R,V*45
$GNGGA,082505.00,3030.1669483,N,11425.7514179,E,5,06,1.0,47.084,M,-13.676,M,0.0,0000*4E
$GPGSA,A,3,05,06,11,13,15,20,29,,,,,,2.4,1.1,2.2,1*25
$GPGSV,2,1,07,05,59,301,45,06,25,098,42,11,56,063,46,13,45,169,45,0*65
$GPGSV,2,2,07,15,25,206,42,20,60,008,44,29,30,316,44,,,,,0*53
$GNRMC,082506.00,A,3030.1669494,N,11425.7514189,E,0.03,0.00,200524,0.0,E,R,V*4C
$GNGGA,082506.00,3030.1669494,N,11425.7514189,E,5,06,1.0,47.093,M,-13.676,M,0.0,0000*42
$GPGSA,A,3,05,06,11,13,15,20,29,,,,,,2.4,1.1,2.2,1*25
$GPGSV,2,1,07,05,59,301,45,06,25,098,42,11,56,063,46,13,45,169,45,0*65
$GPGSV,2,2,07,15,25,206,42,20,60,008,44,29,30,316,44,,,,,0*53
$GNRMC,082507.00,A,3030.1669475,N,11425.7514180,E,0.23,0.00,200524,0.0,E,R,V*49
$GNGGA,082507.00,3030.1669475,N,11425.7514180,E,5,06,1.0,47.078,M,-13.676,M,0.0,0000*40
$GPGSA,A,3,05,06,11,13,15,20,29,,,,,,2.4,1.1,2.2,1*25
$GPGSV,2,1,07,05,59,301,46,06,25,098,42,11,56,063,46,13,45,169,46,0*65
$GPGSV,2,2,07,15,25,206,42,20,60,008,44,29,30,316,45,,,,,0*52
$GNRMC,082508.00,A,3030.1669485,N,11425.7514194,E,0.14,0.00,200524,0.0,E,R,V*48
$GNGGA,082508.00,3030.1669485,N,11425.7514194,E,5,06,1.0,47.084,M,-13.676,M,0.0,0000*46
$GPGSA,A,3,05,06,11,13,15,20,29,,,,,,2.4,1.1,2.2,1*25
$GPGSV,2,1,07,05,59,301,46,06,25,098,42,11,56,064,45,13,45,169,46,0*61
$GPGSV,2,2,07,15,25,206,42,20,60,008,44,29,30,316,45,,,,,0*52
$GNRMC,082509.00,A,3030.1669474,N,11425.7514171,E,0.17,0.00,200524,0.0,E,R,V*4F
$GNGGA,082509.00,3030.1669474,N,11425.7514171,E,5,06,1.0,47.090,M,-13.676,M,-1.0,0000*6B
$GPGSA,A,3,05,06,11,13,15,20,29,,,,,,2.4,1.1,2.2,1*25
$GPGSV,2,1,07,05,59,301,46,06,25,098,42,11,56,064,45,13,45,169,45,0*62
$GPGSV,2,2,07,15,25,206,42,20,60,008,44,29,30,316,45,,,,,0*52
$GNRMC,082510.00,A,3030.1669473,N,11425.7514181,E,0.10,0.00,200524,0.0,E,R,V*48
$GNGGA,082510.00,3030.1669473,N,11425.7514181,E,5,06,1.0,47.105,M,-13.676,M,-1.0,0000*66
$GPGSA,A,3,05,06,11,13,15,20,29,,,,,,2.4,1.1,2.2,1*25
$GPGSV,2,1,07,05,59,301,46,06,25,098,42,11,56,064,45,13,45,169,46,0*61
$GPGSV,2,2,07,15,25,206,42,20,60,008,44,29,30,316,45,,,,,0*52
$GNRMC,082511.00,A,3030.1669496,N,11425.7514175,E,0.09,0.00,200524,0.0,E,R,V*41
$GNGGA,082511.00,3030.1669496,N,11425.7514175,E,5,06,1.0,47.122,M,-13.676,M,-1.0,0000*62
$GPGSA,A,3,05,06,11,13,15,20,29,,,,,,2.4,1.1,2.2,1*25
$GPGSV,2,1,07,05,59,301,45,06,25,098,42,11,56,064,45,13,45,169,46,0*62
$GPGSV,2,2,07,15,25,206,42,20,60,008,44,29,30,316,45,,,,,0*52
$GNRMC,082512.00,A,3030.1669537,N,11425.7514173,E,0.08,0.00,200524,0.0,E,R,V*4F
$GNGGA,082512.00,3030.1669537,N,11425.7514173,E,5,06,1.0,47.142,M,-13.676,M,-1.0,0000*6B
$GPGSA,A,3,05,06,11,13,15,20,29,,,,,,2.4,1.1,2.2,1*25
$GPGSV,2,1,07,05,59,301,46,06,25,098,42,11,56,064,46,13,45,169,46,0*62
$GPGSV,2,2,07,15,25,206,42,20,60,008,44,29,30,316,45,,,,,0*52
$GNRMC,082513.00,A,3030.1669549,N,11425.7514203,E,0.09,0.00,200524,0.0,E,R,V*42
$GNGGA,082513.00,3030.1669549,N,11425.7514203,E,5,06,1.0,47.158,M,-13.676,M,-1.0,0000*6C
$GPGSA,A,3,05,06,11,13,15,20,29,,,,,,2.4,1.1,2.2,1*25
$GPGSV,2,1,07,05,59,301,45,06,25,098,42,11,56,064,46,13,45,169,45,0*62
$GPGSV,2,2,07,15,25,206,42,20,60,008,44,29,30,316,45,,,,,0*52
$GNRMC,082514.00,A,3030.1669586,N,11425.7514231,E,0.12,0.00,200524,0.0,E,R,V*4D
$GNGGA,082514.00,3030.1669586,N,11425.7514231,E,5,06,1.0,47.159,M,-13.676,M,0.0,0000*44
$GPGSA,A,3,05,06,11,13,15,20,29,,,,,,2.4,1.1,2.2,1*25
$GPGSV,2,1,07,05,59,301,46,06,25,098,42,11,56,064,47,13,45,169,45,0*60
$GPGSV,2,2,07,15,25,206,42,20,60,008,44,29,30,316,45,,,,,0*52
$GNRMC,082515.00,A,3030.1669611,N,11425.7514219,E,0.06,0.00,200524,0.0,E,R,V*4E
$GNGGA,082515.00,3030.1669611,N,11425.7514219,E,5,06,1.0,47.171,M,-13.676,M,0.0,0000*48
$GPGSA,A,3,05,06,11,13,15,20,29,,,,,,2.4,1.1,2.2,1*25
$GPGSV,2,1,07,05,59,301,46,06,25,098,42,11,56,064,47,13,45,169,46,0*63
$GPGSV,2,2,07,15,25,206,42,20,60,008,45,29,30,316,45,,,,,0*53
$GNRMC,082516.00,A,3030.1669648,N,11425.7514239,E,0.05,0.00,200524,0.0,E,R,V*40
$GNGGA,082516.00,3030.1669648,N,11425.7514239,E,5,06,1.0,47.173,M,-13.676,M,0.0,0000*47
$GPGSA,A,3,05,06,11,13,15,20,29,,,,,,2.4,1.1,2.2,1*25
$GPGSV,2,1,07,05,59,301,45,06,25,098,42,11,56,064,46,13,45,169,46,0*61
$GPGSV,2,2,07,15,25,206,42,20,60,008,45,29,30,316,45,,,,,0*53
$GNRMC,082517.00,A,3030.1669690,N,11425.7514235,E,0.06,0.00,200524,0.0,E,R,V*4B
$GNGGA,082517.00,3030.1669690,N,11425.7514235,E,5,06,1.0,47.173,M,-13.676,M,0.0,0000*4F
$GPGSA,A,3,05,06,11,13,15,20,29,,,,,,2.4,1.1,2.2,1*25
$GPGSV,2,1,07,05,59,301,45,06,25,098,42,11,56,064,46,13,45,169,46,0*61
$GPGSV,2,2,07,15,25,206,42,20,60,008,44,29,30,316,45,,,,,0*52
$GNRMC,082518.00,A,3030.1669693,N,11425.7514227,E,0.03,0.00,200524,0.0,E,R,V*41
$GNGGA,082518.00,3030.1669693,N,11425.7514227,E,5,06,1.0,47.176,M,-13.676,M,0.0,0000*45
$GPGSA,A,3,05,06,11,13,15,20,29,,,,,,2.4,1.1,2.2,1*25
$GPGSV,2,1,07,05,59,301,45,06,25,098,42,11,56,064,46,13,45,169,46,0*61
$GPGSV,2,2,07,15,25,206,42,20,60,008,45,29,30,316,44,,,,,0*52
$GNRMC,082519.00,A,3030.1669745,N,11425.7514250,E,0.07,0.00,200524,0.0,E,R,V*4E
$GNGGA,082519.00,3030.1669745,N,11425.7514250,E,5,06,1.0,47.180,M,-13.676,M,0.0,0000*47
$GPGSA,A,3,05,06,11,13,15,20,29,,,,,,2.4,1.1,2.2,1*25
$GPGSV,2,1,07,05,59,301,46,06,25,098,41,11,56,064,46,13,45,169,46,0*61
$GPGSV,2,2,07,15,25,206,42,20,60,008,44,29,30,316,44,,,,,0*53
$GNRMC,082520.00,A,3030.1669747,N,11425.7514244,E,0.05,0.00,200524,0.0,E,R,V*41
$GNGGA,082520.00,3030.1669747,N,11425.7514244,E,5,06,1.0,47.193,M,-13.676,M,0.0,0000*48
$GPGSA,A,3,05,06,11,13,15,20,29,,,,,,2.4,1.1,2.2,1*25
$GPGSV,2,1,07,05,59,301,46,06,25,098,42,11,56,064,46,13,45,169,46,0*62
$GPGSV,2,2,07,15,25,206,42,20,60,008,44,29,30,316,45,,,,,0*52
$GNRMC,082521.00,A,3030.1669753,N,11425.7514227,E,0.05,0.00,200524,0.0,E,R,V*40
$GNGGA,082521.00,3030.1669753,N,11425.7514227,E,5,06,1.0,47.207,M,-13.676,M,-1.0,0000*6B
$GPGSA,A,3,05,06,11,13,15,20,29,,,,,,2.4,1.1,2.2,1*25
$GPGSV,2,1,07,05,59,301,46,06,25,098,42,11,56,064,46,13,45,169,45,0*61
$GPGSV,2,2,07,15,25,206,42,20,59,008,44,29,30,316,44,,,,,0*59
$GNRMC,082522.00,A,3030.1669770,N,11425.7514242,E,0.10,0.00,200524,0.0,E,R,V*45
$GNGGA,082522.00,3030.1669770,N,11425.7514242,E,5,06,1.0,47.197,M,-13.676,M,-1.0,0000*60
$GPGSA,A,3,05,06,11,13,15,20,29,,,,,,2.4,1.1,2.2,1*25
$GPGSV,2,1,07,05,59,301,46,06,25,098,42,11,56,064,46,13,45,169,45,0*61
$GPGSV,2,2,07,15,25,206,42,20,59,008,44,29,30,316,44,,,,,0*59
$GNRMC,082523.00,A,3030.1669797,N,11425.7514232,E,0.11,0.00,200524,0.0,E,R,V*4B
$GNGGA,082523.00,3030.1669797,N,11425.7514232,E,5,06,1.0,47.211,M,-13.676,M,-1.0,0000*62
$GPGSA,A,3,05,06,11,13,15,20,29,,,,,,2.4,1.1,2.2,1*25
$GPGSV,2,1,07,05,59,301,46,06,25,098,42,11,56,064,46,13,45,169,45,0*61
$GPGSV,2,2,07,15,25,206,42,20,59,008,45,29,30,316,45,,,,,0*59
$GNRMC,082524.00,A,3030.1669794,N,11425.7514194,E,0.13,0.00,200524,0.0,E,R,V*42
$GNGGA,082524.00,3030.1669794,N,11425.7514194,E,5,06,1.0,47.221,M,-13.676,M,-1.0,0000*6A
$GPGSA,A,3,05,06,11,13,15,20,29,,,,,,2.4,1.1,2.2,1*25
$GPGSV,2,1,07,05,59,301,46,06,25,098,41,11,56,064,47,13,45,169,46,0*60
$GPGSV,2,2,07,15,25,206,42,20,59,008,45,29,30,316,44,,,,,0*58
$GNRMC,082525.00,A,3030.1669816,N,11425.7514225,E,0.09,0.00,200524,0.0,E,R,V*44
$GNGGA,082525.00,3030.1669816,N,11425.7514225,E,5,06,1.0,47.211,M,-13.676,M,-1.0,0000*64
$GPGSA,A,3,05,06,11,13,15,20,29,,,,,,2.4,1.1,2.2,1*25
$GPGSV,2,1,07,05,59,301,45,06,25,098,41,11,56,064,46,13,45,169,45,0*61
$GPGSV,2,2,07,15,25,206,42,20,59,008,45,29,30,316,45,,,,,0*59
$GNRMC,082526.00,A,3030.1669806,N,11425.7514219,E,0.15,0.00,200524,0.0,E,R,V*44
$GNGGA,082526.00,3030.1669806,N,11425.7514219,E,5,06,1.0,47.212,M,-13.676,M,-1.0,0000*6A
$GPGSA,A,3,05,06,11,13,15,20,29,,,,,,2.4,1.1,2.2,1*25
$GPGSV,2,1,07,05,59,301,45,06,25,098,41,11,56,064,46,13,45,169,45,0*61
$GPGSV,2,2,07,15,25,206,42,20,59,008,44,29,30,316,45,,,,,0*58
$GNRMC,082527.00,A,3030.1669825,N,11425.7514204,E,0.10,0.00,200524,0.0,E,R,V*4D
$GNGGA,082527.00,3030.1669825,N,11425.7514204,E,5,06,1.0,47.220,M,-13.676,M,-1.0,0000*67
$GPGSA,A,3,05,06,11,13,15,20,29,,,,,,2.4,1.1,2.2,1*25
$GPGSV,2,1,07,05,59,301,45,06,25,098,41,11,56,064,46,13,45,169,45,0*61
$GPGSV,2,2,07,15,25,206,42,20,59,008,44,29,30,316,44,,,,,0*59
$GNRMC,082528.00,A,3030.1669830,N,11425.7514211,E,0.08,0.00,200524,0.0,E,R,V*4B
$GNGGA,082528.00,3030.1669830,N,11425.7514211,E,5,06,1.0,47.222,M,-13.676,M,-1.0,0000*6A
$GPGSA,A,3,05,06,11,13,15,20,29,,,,,,2.4,1.1,2.2,1*25
$GPGSV,2,1,07,05,59,301,45,06,25,098,41,11,56,064,45,13,45,169,45,0*62
$GPGSV,2,2,07,15,25,206,42,20,59,008,44,29,30,316,44,,,,,0*59
$GNRMC,082529.00,A,3030.1669809,N,11425.7514235,E,0.10,0.00,200524,0.0,E,R,V*4F
$GNGGA,082529.00,3030.1669809,N,11425.7514235,E,5,06,1.0,47.202,M,-13.676,M,-1.0,0000*65
$GPGSA,A,3,05,06,11,13,15,20,29,,,,,,2.4,1.1,2.2,1*25
$GPGSV,2,1,07,05,59,301,45,06,25,098,41,11,56,064,46,13,45,169,45,0*61
$GPGSV,2,2,07,15,25,206,42,20,59,008,44,29,30,316,44,,,,,0*59
$GNRMC,082530.00,A,3030.1669845,N,11425.7514278,E,0.07,0.00,200524,0.0,E,R,V*40
$GNGGA,082530.00,3030.1669845,N,11425.7514278,E,5,06,1.0,47.193,M,-13.676,M,0.0,0000*4B
$GPGSA,A,3,05,06,11,13,15,20,29,,,,,,2.4,1.1,2.2,1*25
$GPGSV,2,1,07,05,59,301,45,06,25,098,41,11,56,064,46,13,45,169,45,0*61
$GPGSV,2,2,07,15,25,206,42,20,59,008,44,29,30,316,44,,,,,0*59
$GNRMC,082531.00,A,3030.1669838,N,11425.7514289,E,0.06,0.00,200524,0.0,E,R,V*44
$GNGGA,082531.00,3030.1669838,N,11425.7514289,E,5,06,1.0,47.187,M,-13.676,M,0.0,0000*4B
$GPGSA,A,3,05,06,11,13,15,20,29,,,,,,2.4,1.1,2.2,1*25
$GPGSV,2,1,07,05,59,301,45,06,25,098,41,11,56,064,45,13,45,169,45,0*62
$GPGSV,2,2,07,15,25,206,42,20,59,008,44,29,30,316,45,,,,,0*58
$GNRMC,082532.00,A,3030.1669863,N,11425.7514330,E,0.13,0.00,200524,0.0,E,R,V*4E
$GNGGA,082532.00,3030.1669863,N,11425.7514330,E,5,06,1.0,47.170,M,-13.676,M,1.0,0000*4C
$GPGSA,A,3,05,06,11,13,15,20,29,,,,,,2.4,1.1,2.2,1*25
$GPGSV,2,1,07,05,59,301,45,06,25,098,41,11,56,064,45,13,45,169,45,0*62
$GPGSV,2,2,07,15,25,206,42,20,59,008,44,29,30,316,45,,,,,0*58
$GNRMC,082533.00,A,3030.1669836,N,11425.7514315,E,0.10,0.00,200524,0.0,E,R,V*4B
$GNGGA,082533.00,3030.1669836,N,11425.7514315,E,5,06,1.0,47.165,M,-13.676,M,0.0,0000*4F
$GPGSA,A,3,05,06,11,13,15,20,29,,,,,,2.4,1.1,2.2,1*25
$GPGSV,2,1,07,05,59,301,45,06,25,098,42,11,56,064,46,13,45,169,45,0*62
$GPGSV,2,2,07,15,25,206,42,20,59,008,44,29,30,316,45,,,,,0*58
$GNRMC,082534.00,A,3030.1669761,N,11425.7514297,E,0.06,0.00,200524,0.0,E,R,V*4D
$GNGGA,082534.00,3030.1669761,N,11425.7514297,E,5,06,1.0,47.163,M,-13.676,M,-1.0,0000*64
$GPGSA,A,3,05,06,11,13,15,20,29,,,,,,2.4,1.1,2.2,1*25
$GPGSV,2,1,07,05,59,301,45,06,25,098,41,11,56,064,45,13,45,169,45,0*62
$GPGSV,2,2,07,15,25,206,42,20,59,008,44,29,30,316,44,,,,,0*59
$GNRMC,082535.00,A,3030.1669790,N,11425.7514315,E,0.08,0.00,200524,0.0,E,R,V*47
$GNGGA,082535.00,3030.1669790,N,11425.7514315,E,5,06,1.0,47.153,M,-13.676,M,0.0,0000*4F
$GPGSA,A,3,05,06,11,13,15,20,29,,,,,,2.4,1.1,2.2,1*25
$GPGSV,2,1,07,05,59,301,45,06,25,098,41,11,56,064,46,13,45,169,45,0*61
$GPGSV,2,2,07,15,25,206,42,20,59,008,44,29,30,316,44,,,,,0*59
$GNRMC,082536.00,A,3030.1669599,N,11425.7514248,E,0.03,0.00,200524,0.0,E,R,V*4D
$GNGGA,082536.00,3030.1669599,N,11425.7514248,E,5,06,1.0,47.177,M,-13.676,M,-1.0,0000*64
$GPGSA,A,3,05,06,11,13,15,20,29,,,,,,2.4,1.1,2.2,1*25
$GPGSV,2,1,07,05,59,301,45,06,25,098,41,11,56,064,46,13,45,169,45,0*61
$GPGSV,2,2,07,15,25,206,42,20,59,008,44,29,30,316,45,,,,,0*58
$GNRMC,082537.00,A,3030.1669639,N,11425.7514302,E,0.18,0.00,200524,0.0,E,R,V*40
$GNGGA,082537.00,3030.1669639,N,11425.7514302,E,5,06,1.0,47.176,M,-13.676,M,0.0,0000*4E
$GPGSA,A,3,05,06,11,13,15,20,29,,,,,,2.4,1.1,2.2,1*25
$GPGSV,2,1,07,05,59,301,45,06,25,098,42,11,56,064,47,13,45,169,45,0*63
$GPGSV,2,2,07,15,25,206,42,20,59,008,44,29,30,316,44,,,,,0*59
$GNRMC,082538.00,A,3030.1669608,N,11425.7514312,E,0.08,0.00,200524,0.0,E,R,V*4D
$GNGGA,082538.00,3030.1669608,N,11425.7514312,E,5,06,1.0,47.184,M,-13.676,M,-1.0,0000*63
$GPGSA,A,3,05,06,11,13,15,20,29,,,,,,2.4,1.1,2.2,1*25
$GPGSV,2,1,07,05,59,301,46,06,25,098,42,11,56,064,47,13,45,169,45,0*60
$GPGSV,2,2,07,15,25,206,42,20,59,008,44,29,30,316,45,,,,,0*58
$GNRMC,082539.00,A,3030.1669628,N,11425.7514329,E,0.11,0.00,200524,0.0,E,R,V*4E
$GNGGA,082539.00,3030.1669628,N,11425.7514329,E,5,06,1.0,47.184,M,-13.676,M,0.0,0000*44
$GPGSA,A,3,05,06,11,13,15,20,29,,,,,,2.4,1.1,2.2,1*25
$GPGSV,2,1,07,05,59,302,46,06,25,098,41,11,56,064,46,13,45,169,45,0*61
$GPGSV,2,2,07,15,25,206,42,20,59,008,44,29,30,316,44,,,,,0*59
$GNRMC,082540.00,A,3030.1669673,N,11425.7514354,E,0.10,0.00,200524,0.0,E,R,V*45
$GNGGA,082540.00,3030.1669673,N,11425.7514354,E,5,06,1.0,47.182,M,-13.676,M,-1.0,0000*64
$GPGSA,A,3,05,06,11,13,15,20,29,,,,,,2.4,1.1,2.2,1*25
$GPGSV,2,1,07,05,59,302,46,06,25,098,41,11,56,064,46,13,45,169,45,0*61
$GPGSV,2,2,07,15,25,206,42,20,59,008,44,29,30,316,44,,,,,0*59
$GNRMC,082541.00,A,3030.1669728,N,11425.7514390,E,0.06,0.00,200524,0.0,E,R,V*44
$GNGGA,082541.00,3030.1669728,N,11425.7514390,E,5,06,1.0,47.180,M,-13.676,M,0.0,0000*4C
$GPGSA,A,3,05,06,11,13,15,20,29,,,,,,2.4,1.1,2.2,1*25
$GPGSV,2,1,07,05,59,302,46,06,25,098,41,11,56,064,46,13,45,169,45,0*61
$GPGSV,2,2,07,15,25,206,42,20,59,008,45,29,30,316,44,,,,,0*58
$GNRMC,082542.00,A,3030.1669385,N,11425.7514334,E,0.06,0.00,200524,0.0,E,R,V*4A
$GNGGA,082542.00,3030.1669385,N,11425.7514334,E,5,06,1.0,47.205,M,-13.676,M,0.0,0000*4C
$GPGSA,A,3,05,06,11,13,15,20,29,,,,,,2.4,1.1,2.2,1*25
$GPGSV,2,1,07,05,59,302,45,06,25,098,42,11,56,064,47,13,45,169,45,0*60
$GPGSV,2,2,07,15,25,206,42,20,59,008,44,29,30,316,44,,,,,0*59
$GNRMC,082543.00,A,3030.1669428,N,11425.7514393,E,0.17,0.00,200524,0.0,E,R,V*46
$GNGGA,082543.00,3030.1669428,N,11425.7514393,E,5,06,1.0,47.231,M,-13.676,M,1.0,0000*46
$GPGSA,A,3,05,06,11,13,20,29,,,,,,,2.8,1.4,2.4,1*2E
$GPGSV,2,1,06,05,59,302,45,06,25,098,42,11,56,064,45,13,45,169,45,0*63
$GPGSV,2,2,06,20,59,008,44,29,30,316,44,,,,,,,,,0*69
$GNRMC,082544.00,A,3030.1669743,N,11425.7514429,E,0.05,0.00,200524,0.0,E,R,V*4A
$GNGGA,082544.00,3030.1669743,N,11425.7514429,E,5,06,1.0,47.239,M,-13.676,M,0.0,0000*40
$GPGSA,A,3,05,06,11,13,20,29,,,,,,,2.8,1.4,2.4,1*2E
$GPGSV,2,1,06,05,59,302,45,06,25,098,42,11,56,064,45,13,45,169,46,0*60
$GPGSV,2,2,06,20,59,008,44,29,30,316,44,,,,,,,,,0*69
$GNRMC,082545.00,A,3030.1669777,N,11425.7514484,E,0.08,0.00,200524,0.0,E,R,V*46
$GNGGA,082545.00,3030.1669777,N,11425.7514484,E,5,06,1.0,47.234,M,-13.676,M,1.0,0000*4D
$GPGSA,A,3,05,06,11,13,20,29,,,,,,,2.8,1.4,2.4,1*2E
$GPGSV,2,1,06,05,59,302,45,06,25,098,42,11,56,064,45,13,46,169,46,0*63
$GPGSV,2,2,06,20,59,008,44,29,30,316,44,,,,,,,,,0*69
$GNRMC,082546.00,A,3030.1669786,N,11425.7514469,E,0.07,0.00,200524,0.0,E,R,V*47
$GNGGA,082546.00,3030.1669786,N,11425.7514469,E,5,06,1.0,47.234,M,-13.676,M,0.0,0000*42
$GPGSA,A,3,05,06,11,13,20,29,,,,,,,2.8,1.4,2.4,1*2E
$GPGSV,2,1,06,05,59,302,45,06,25,098,41,11,56,064,45,13,46,169,45,0*63
$GPGSV,2,2,06,20,59,008,44,29,30,316,44,,,,,,,,,0*69
$GNRMC,082547.00,A,3030.1669774,N,11425.7514445,E,0.09,0.00,200524,0.0,E,R,V*4B
$GNGGA,082547.00,3030.1669774,N,11425.7514445,E,5,06,1.0,47.241,M,-13.676,M,-1.0,0000*6E
$GPGSA,A,3,05,06,11,13,20,29,,,,,,,2.8,1.4,2.4,1*2E
$GPGSV,2,1,06,05,59,302,45,06,25,098,41,11,56,064,45,13,46,169,46,0*60
$GPGSV,2,2,06,20,59,008,45,29,30,316,44,,,,,,,,,0*68
$GNRMC,082548.00,A,3030.1669850,N,11425.7514484,E,0.08,0.00,200524,0.0,E,R,V*41
$GNGGA,082548.00,3030.1669850,N,11425.7514484,E,5,06,1.0,47.219,M,-13.676,M,-1.0,0000*68
$GPGSA,A,3,05,06,11,13,20,29,,,,,,,2.8,1.4,2.4,1*2E
$GPGSV,2,1,06,05,59,302,45,06,25,098,41,11,56,064,46,13,46,169,46,0*63
$GPGSV,2,2,06,20,59,008,44,29,30,316,44,,,,,,,,,0*69
$GNRMC,082549.00,A,3030.1669847,N,11425.7514486,E,0.08,0.00,200524,0.0,E,R,V*44
$GNGGA,082549.00,3030.1669847,N,11425.7514486,E,5,06,1.0,47.220,M,-13.676,M,-1.0,0000*67
$GPGSA,A,3,05,06,11,13,20,29,,,,,,,2.8,1.4,2.4,1*2E
$GPGSV,2,1,06,05,59,302,45,06,25,098,41,11,56,064,46,13,46,169,46,0*63
$GPGSV,2,2,06,20,59,008,44,29,30,316,44,,,,,,,,,0*69
$GNRMC,082550.00,A,3030.1669873,N,11425.7514490,E,0.10,0.00,200524,0.0,E,R,V*45
$GNGGA,082550.00,3030.1669873,N,11425.7514490,E,5,06,1.0,47.208,M,-13.676,M,-1.0,0000*65
$GPGSA,A,3,05,06,11,13,20,29,,,,,,,2.8,1.4,2.4,1*2E
$GPGSV,2,1,06,05,59,302,45,06,25,098,42,11,56,064,46,13,46,169,45,0*63
$GPGSV,2,2,06,20,59,008,44,29,30,316,44,,,,,,,,,0*69
$GNRMC,082551.00,A,3030.1669885,N,11425.7514495,E,0.08,0.00,200524,0.0,E,R,V*41
$GNGGA,082551.00,3030.1669885,N,11425.7514495,E,5,06,1.0,47.212,M,-13.676,M,-1.0,0000*63
$GPGSA,A,3,05,06,11,13,20,29,,,,,,,2.8,1.4,2.4,1*2E
$GPGSV,2,1,06,05,59,302,45,06,25,098,42,11,56,064,46,13,46,169,45,0*63
$GPGSV,2,2,06,20,59,008,44,29,30,316,44,,,,,,,,,0*69
$GNRMC,082552.00,A,3030.1669910,N,11425.7514509,E,0.04,0.00,200524,0.0,E,R,V*47
$GNGGA,082552.00,3030.1669910,N,11425.7514509,E,5,06,1.0,47.202,M,-13.676,M,0.0,0000*44
$GPGSA,A,3,05,06,11,13,20,29,,,,,,,2.8,1.4,2.4,1*2E
$GPGSV,2,1,06,05,59,302,45,06,25,098,42,11,56,064,45,13,46,169,46,0*63
$GPGSV,2,2,06,20,59,008,44,29,30,316,44,,,,,,,,,0*69
$GNRMC,082553.00,A,3030.1669897,N,11425.7514496,E,0.07,0.00,200524,0.0,E,R,V*4C
$GNGGA,082553.00,3030.1669897,N,11425.7514496,E,5,06,1.0,47.209,M,-13.676,M,-1.0,0000*6B
$GPGSA,A,3,05,06,11,13,20,29,,,,,,,2.8,1.4,2.4,1*2E
$GPGSV,2,1,06,05,59,302,45,06,25,098,41,11,56,064,46,13,46,169,45,0*60
$GPGSV,2,2,06,20,59,008,44,29,30,316,44,,,,,,,,,0*69
$GNRMC,082554.00,A,3030.1669929,N,11425.7514503,E,0.29,0.00,200524,0.0,E,R,V*4E
$GNGGA,082554.00,3030.1669929,N,11425.7514503,E,5,06,1.0,47.219,M,-13.676,M,0.0,0000*48
$GPGSA,A,3,05,06,11,13,20,29,,,,,,,2.8,1.4,2.4,1*2E
$GPGSV,2,1,06,05,59,302,45,06,25,098,41,11,56,064,46,13,46,169,45,0*60
$GPGSV,2,2,06,20,59,008,44,29,30,316,45,,,,,,,,,0*68
$GNRMC,082555.00,A,3030.1669951,N,11425.7514522,E,0.26,0.00,200524,0.0,E,R,V*4C
$GNGGA,082555.00,3030.1669951,N,11425.7514522,E,5,06,1.0,47.190,M,-13.676,M,0.0,0000*47
$GPGSA,A,3,05,06,11,13,20,29,,,,,,,2.8,1.4,2.4,1*2E
$GPGSV,2,1,06,05,59,302,45,06,25,098,41,11,56,064,46,13,46,169,45,0*60
$GPGSV,2,2,06,20,59,008,44,29,30,316,45,,,,,,,,,0*68
$GNRMC,082556.00,A,3030.1669989,N,11425.7514542,E,0.09,0.00,200524,0.0,E,R,V*41
$GNGGA,082556.00,3030.1669989,N,11425.7514542,E,5,06,1.0,47.179,M,-13.676,M,1.0,0000*41
$GPGSA,A,3,05,06,11,13,20,29,,,,,,,2.8,1.4,2.4,1*2E
$GPGSV,2,1,06,05,59,302,45,06,25,098,41,11,56,064,46,13,46,169,45,0*60
$GPGSV,2,2,06,20,59,008,44,29,30,316,44,,,,,,,,,0*69
$GNRMC,082557.00,A,3030.1669946,N,11425.7514517,E,0.13,0.00,200524,0.0,E,R,V*48
$GNGGA,082557.00,3030.1669946,N,11425.7514517,E,5,06,1.0,47.172,M,-13.676,M,0.0,0000*49
$GPGSA,A,3,05,06,11,13,20,29,,,,,,,2.8,1.4,2.4,1*2E
$GPGSV,2,1,06,05,59,302,45,06,25,098,41,11,56,064,46,13,46,169,45,0*60
$GPGSV,2,2,06,20,59,008,44,29,30,316,44,,,,,,,,,0*69
$GNRMC,082558.00,A,3030.1669984,N,11425.7514521,E,0.09,0.00,200524,0.0,E,R,V*47
$GNGGA,082558.00,3030.1669984,N,11425.7514521,E,5,06,1.0,47.172,M,-13.676,M,1.0,0000*4C
$GPGSA,A,3,05,06,11,13,20,29,,,,,,,2.8,1.4,2.4,1*2E
$GPGSV,2,1,06,05,59,302,45,06,25,098,41,11,56,064,46,13,46,169,45,0*60
$GPGSV,2,2,06,20,59,008,44,29,30,316,44,,,,,,,,,0*69
$GNRMC,082559.00,A,3030.1669967,N,11425.7514516,E,0.12,0.00,200524,0.0,E,R,V*45
$GNGGA,082559.00,3030.1669967,N,11425.7514516,E,5,06,1.0,47.170,M,-13.676,M,0.0,0000*47
$GPGSA,A,3,05,06,11,13,20,29,,,,,,,2.8,1.4,2.4,1*2E
$GPGSV,2,1,06,05,59,302,45,06,25,098,41,11,56,064,46,13,46,169,45,0*60
$GPGSV,2,2,06,20,59,008,44,29,30,316,44,,,,,,,,,0*69
$GNRMC,082600.00,A,3030.1669989,N,11425.7514512,E,0.12,0.00,200524,0.0,E,R,V*4E
$GNGGA,082600.00,3030.1669989,N,11425.7514512,E,5,06,1.0,47.169,M,-13.676,M,-1.0,0000*68
$GPGSA,A,3,05,06,11,13,20,29,,,,,,,2.8,1.4,2.4,1*2E
$GPGSV,2,1,06,05,59,302,45,06,25,098,41,11,56,064,45,13,46,169,45,0*63
$GPGSV,2,2,06,20,59,008,44,29,30,316,44,,,,,,,,,0*69
$GNRMC,082601.00,A,3030.1669999,N,11425.7514540,E,0.05,0.00,200524,0.0,E,R,V*4F
$GNGGA,082601.00,3030.1669999,N,11425.7514540,E,5,06,1.0,47.165,M,-13.676,M,-1.0,0000*63
$GPGSA,A,3,05,06,11,13,20,29,,,,,,,2.8,1.4,2.4,1*2E
$GPGSV,2,1,06,05,59,302,45,06,25,098,41,11,56,064,46,13,46,169,45,0*60
$GPGSV,2,2,06,20,59,008,44,29,30,316,44,,,,,,,,,0*69
$GNRMC,082602.00,A,3030.1670010,N,11425.7514543,E,0.13,0.00,200524,0.0,E,R,V*48
$GNGGA,082602.00,3030.1670010,N,11425.7514543,E,5,06,1.0,47.167,M,-13.676,M,-1.0,0000*61
$GPGSA,A,3,05,06,11,13,20,29,,,,,,,2.8,1.4,2.4,1*2E
$GPGSV,2,1,06,05,59,302,45,06,25,098,41,11,56,064,46,13,46,169,45,0*60
$GPGSV,2,2,06,20,59,008,44,29,30,316,44,,,,,,,,,0*69
$GNRMC,082603.00,A,3030.1670035,N,11425.7514559,E,0.12,0.00,200524,0.0,E,R,V*44
$GNGGA,082603.00,3030.1670035,N,11425.7514559,E,5,06,1.0,47.171,M,-13.676,M,-1.0,0000*6B
$GPGSA,A,3,05,06,11,13,20,29,,,,,,,2.8,1.4,2.4,1*2E
$GPGSV,2,1,06,05,59,302,45,06,25,098,41,11,56,064,45,13,46,169,45,0*63
$GPGSV,2,2,06,20,59,009,44,29,30,316,44,,,,,,,,,0*68
$GNRMC,082604.00,A,3030.1670034,N,11425.7514554,E,0.16,0.00,200524,0.0,E,R,V*4B
$GNGGA,082604.00,3030.1670034,N,11425.7514554,E,5,06,1.0,47.178,M,-13.676,M,-1.0,0000*69
$GPGSA,A,3,05,06,11,13,20,29,,,,,,,2.8,1.4,2.4,1*2E
$GPGSV,2,1,06,05,59,302,45,06,25,098,41,11,56,064,45,13,46,169,45,0*63
$GPGSV,2,2,06,20,59,009,43,29,30,316,44,,,,,,,,,0*6F
$GNRMC,082605.00,A,3030.1670021,N,11425.7514563,E,0.06,0.00,200524,0.0,E,R,V*4B
$GNGGA,082605.00,3030.1670021,N,11425.7514563,E,5,06,1.0,47.182,M,-13.676,M,-1.0,0000*6D
$GPGSA,A,3,05,06,11,13,20,29,,,,,,,2.8,1.4,2.4,1*2E
$GPGSV,2,1,06,05,59,302,45,06,25,098,41,11,56,064,45,13,46,169,45,0*63
$GPGSV,2,2,06,20,59,009,44,29,30,316,44,,,,,,,,,0*68
$GNRMC,082606.00,A,3030.1670063,N,11425.7514592,E,0.08,0.00,200524,0.0,E,R,V*4E
$GNGGA,082606.00,3030.1670063,N,11425.7514592,E,5,06,1.0,47.182,M,-13.676,M,0.0,0000*4A
$GPGSA,A,3,05,06,11,13,20,29,,,,,,,2.8,1.4,2.4,1*2E
$GPGSV,2,1,06,05,59,302,45,06,25,098,41,11,56,064,45,13,46,169,45,0*63
$GPGSV,2,2,06,20,59,009,44,29,30,316,44,,,,,,,,,0*68
$GNRMC,082607.00,A,3030.1670076,N,11425.7514590,E,0.05,0.00,200524,0.0,E,R,V*44
$GNGGA,082607.00,3030.1670076,N,11425.7514590,E,5,06,1.0,47.181,M,-13.676,M,0.0,0000*4E
$GPGSA,A,3,05,06,11,13,20,29,,,,,,,2.8,1.4,2.4,1*2E
$GPGSV,2,1,06,05,59,302,45,06,25,098,42,11,56,064,45,13,46,169,45,0*60
$GPGSV,2,2,06,20,59,009,44,29,30,316,45,,,,,,,,,0*69
$GNRMC,082608.00,A,3030.1670097,N,11425.7514607,E,0.06,0.00,200524,0.0,E,R,V*4A
$GNGGA,082608.00,3030.1670097,N,11425.7514607,E,5,06,1.0,47.183,M,-13.676,M,1.0,0000*40
$GPGSA,A,3,05,06,11,13,20,29,,,,,,,2.8,1.4,2.4,1*2E
$GPGSV,2,1,06,05,59,302,45,06,25,098,41,11,56,064,44,13,46,169,43,0*64
$GPGSV,2,2,06,20,59,009,44,29,30,316,44,,,,,,,,,0*68
$GNRMC,082609.00,A,3030.1670081,N,11425.7514604,E,0.05,0.00,200524,0.0,E,R,V*4C
$GNGGA,082609.00,3030.1670081,N,11425.7514604,E,5,06,1.0,47.179,M,-13.676,M,0.0,0000*41
$GPGSA,A,3,05,06,11,13,20,29,,,,,,,2.8,1.4,2.4,1*2E
$GPGSV,2,1,06,05,59,302,44,06,25,098,42,11,56,064,45,13,46,169,45,0*61
$GPGSV,2,2,06,20,59,009,44,29,30,316,44,,,,,,,,,0*68
$GNRMC,082610.00,A,3030.1670073,N,11425.7514600,E,0.13,0.00,200524,0.0,E,R,V*4A
$GNGGA,082610.00,3030.1670073,N,11425.7514600,E,5,06,1.0,47.176,M,-13.676,M,0.0,0000*4F
$GPGSA,A,3,05,06,11,13,20,29,,,,,,,2.8,1.4,2.4,1*2E
$GPGSV,2,1,06,05,59,302,44,06,25,098,41,11,56,064,45,13,46,169,45,0*62
$GPGSV,2,2,06,20,59,009,44,29,30,316,44,,,,,,,,,0*68
$GNRMC,082611.00,A,3030.1670040,N,11425.7514574,E,0.04,0.00,200524,0.0,E,R,V*4D
$GNGGA,082611.00,3030.1670040,N,11425.7514574,E,5,06,1.0,47.180,M,-13.676,M,0.0,0000*47
$GPGSA,A,3,05,06,11,13,20,29,,,,,,,2.8,1.4,2.4,1*2E
$GPGSV,2,1,06,05,59,302,45,06,25,098,41,11,56,064,46,13,46,169,45,0*60
$GPGSV,2,2,06,20,59,009,44,29,30,316,45,,,,,,,,,0*69
$GNRMC,082612.00,A,3030.1670032,N,11425.7514587,E,0.04,0.00,200524,0.0,E,R,V*47
$GNGGA,082612.00,3030.1670032,N,11425.7514587,E,5,06,1.0,47.173,M,-13.676,M,0.0,0000*41
$GPGSA,A,3,05,06,11,13,20,29,,,,,,,2.8,1.4,2.4,1*2E
$GPGSV,2,1,06,05,59,302,45,06,25,099,41,11,56,064,45,13,46,169,45,0*62
$GPGSV,2,2,06,20,59,009,45,29,30,316,45,,,,,,,,,0*68
$GNRMC,082613.00,A,3030.1670015,N,11425.7514599,E,0.05,0.00,200524,0.0,E,R,V*4D
$GNGGA,082613.00,3030.1670015,N,11425.7514599,E,5,06,1.0,47.164,M,-13.676,M,0.0,0000*4C
$GPGSA,A,3,05,06,11,13,20,29,,,,,,,2.8,1.4,2.4,1*2E
$GPGSV,2,1,06,05,59,302,45,06,25,099,41,11,56,064,45,13,46,169,45,0*62
$GPGSV,2,2,06,20,59,009,44,29,30,316,44,,,,,,,,,0*68
$GNRMC,082614.00,A,3030.1669981,N,11425.7514564,E,0.28,0.00,200524,0.0,E,R,V*4B
$GNGGA,082614.00,3030.1669981,N,11425.7514564,E,5,06,1.0,47.164,M,-13.676,M,-1.0,0000*69
$GPGSA,A,3,05,06,11,13,20,29,,,,,,,2.8,1.4,2.4,1*2E
$GPGSV,2,1,06,05,59,302,45,06,25,099,42,11,56,064,46,13,46,169,46,0*61
$GPGSV,2,2,06,20,59,009,44,29,30,316,45,,,,,,,,,0*69
$GNRMC,082615.00,A,3030.1669966,N,11425.7514579,E,0.08,0.00,200524,0.0,E,R,V*4D
$GNGGA,082615.00,3030.1669966,N,11425.7514579,E,5,06,1.0,47.164,M,-13.676,M,-1.0,0000*6D
$GPGSA,A,3,05,06,11,13,20,29,,,,,,,2.8,1.4,2.4,1*2E
$GPGSV,2,1,06,05,59,302,45,06,25,099,42,11,56,064,46,13,46,169,45,0*62
$GPGSV,2,2,06,20,59,009,44,29,30,315,45,,,,,,,,,0*6A
$GNRMC,082616.00,A,3030.1669943,N,11425.7514557,E,0.04,0.00,200524,0.0,E,R,V*49
$GNGGA,082616.00,3030.1669943,N,11425.7514557,E,5,06,1.0,47.164,M,-13.676,M,-1.0,0000*65
$GPGSA,A,3,05,06,11,13,20,29,,,,,,,2.8,1.4,2.4,1*2E
$GPGSV,2,1,06,05,59,302,45,06,25,099,41,11,56,064,46,13,46,169,45,0*61
$GPGSV,2,2,06,20,59,009,44,29,30,315,45,,,,,,,,,0*6A
$GNRMC,082617.00,A,3030.1669923,N,11425.7514573,E,0.09,0.00,200524,0.0,E,R,V*45
$GNGGA,082617.00,3030.1669923,N,11425.7514573,E,5,06,1.0,47.173,M,-13.676,M,-1.0,0000*62
$GPGSA,A,3,05,06,11,13,20,29,,,,,,,2.8,1.4,2.4,1*2E
$GPGSV,2,1,06,05,59,302,45,06,25,099,41,11,56,064,45,13,46,169,45,0*62
$GPGSV,2,2,06,20,59,009,44,29,30,315,45,,,,,,,,,0*6A
$GNRMC,082618.00,A,3030.1669907,N,11425.7514558,E,0.06,0.00,200524,0.0,E,R,V*4A
$GNGGA,082618.00,3030.1669907,N,11425.7514558,E,5,06,1.0,47.176,M,-13.676,M,-1.0,0000*67
$GPGSA,A,3,05,06,11,13,20,29,,,,,,,2.8,1.4,2.4,1*2E
$GPGSV,2,1,06,05,59,302,45,06,25,099,41,11,56,064,45,13,46,169,46,0*61
$GPGSV,2,2,06,20,59,009,44,29,30,315,45,,,,,,,,,0*6A
$GNRMC,082619.00,A,3030.1669898,N,11425.7514573,E,0.15,0.00,200524,0.0,E,R,V*47
$GNGGA,082619.00,3030.1669898,N,11425.7514573,E,5,06,1.0,47.174,M,-13.676,M,0.0,0000*46
$GPGSA,A,3,05,06,11,13,20,29,,,,,,,2.8,1.4,2.4,1*2E
$GPGSV,2,1,06,05,59,302,45,06,25,099,41,11,56,064,45,13,46,169,45,0*62
$GPGSV,2,2,06,20,59,009,44,29,30,315,45,,,,,,,,,0*6A
$GNRMC,082620.00,A,3030.1669854,N,11425.7514547,E,0.11,0.00,200524,0.0,E,R,V*4E
$GNGGA,082620.00,3030.1669854,N,11425.7514547,E,5,06,1.0,47.183,M,-13.676,M,-1.0,0000*6F
$GPGSA,A,3,05,06,11,13,20,29,,,,,,,2.8,1.4,2.4,1*2E
$GPGSV,2,1,06,05,59,302,45,06,25,099,41,11,56,065,46,13,46,169,45,0*60
$GPGSV,2,2,06,20,59,009,44,29,30,315,45,,,,,,,,,0*6A
$GNRMC,082621.00,A,3030.1669896,N,11425.7514564,E,0.08,0.00,200524,0.0,E,R,V*48
$GNGGA,082621.00,3030.1669896,N,11425.7514564,E,5,06,1.0,47.172,M,-13.676,M,0.0,0000*43
$GPGSA,A,3,05,06,11,13,20,29,,,,,,,2.8,1.4,2.4,1*2E
$GPGSV,2,1,06,05,59,302,45,06,25,099,41,11,56,065,45,13,46,169,45,0*63
$GPGSV,2,2,06,20,59,009,45,29,30,315,45,,,,,,,,,0*6B
$GNRMC,082622.00,A,3030.1669885,N,11425.7514565,E,0.06,0.00,200524,0.0,E,R,V*46
$GNGGA,082622.00,3030.1669885,N,11425.7514565,E,5,06,1.0,47.173,M,-13.676,M,0.0,0000*42
$GPGSA,A,3,05,06,11,13,20,29,,,,,,,2.8,1.4,2.4,1*2E
$GPGSV,2,1,06,05,59,302,45,06,25,099,41,11,56,065,46,13,46,169,45,0*60
$GPGSV,2,2,06,20,59,009,44,29,30,315,45,,,,,,,,,0*6A
$GNRMC,082623.00,A,3030.1669888,N,11425.7514564,E,0.09,0.00,200524,0.0,E,R,V*44
$GNGGA,082623.00,3030.1669888,N,11425.7514564,E,5,06,1.0,47.171,M,-13.676,M,1.0,0000*4C
$GPGSA,A,3,05,06,11,13,20,29,,,,,,,2.8,1.4,2.4,1*2E
$GPGSV,2,1,06,05,59,302,46,06,25,099,41,11,56,065,45,13,46,169,46,0*63
$GPGSV,2,2,06,20,59,009,44,29,30,315,45,,,,,,,,,0*6A
$GNRMC,082624.00,A,3030.1669852,N,11425.7514540,E,0.08,0.00,200524,0.0,E,R,V*43
$GNGGA,082624.00,3030.1669852,N,11425.7514540,E,5,06,1.0,47.185,M,-13.676,M,0.0,0000*40
$GPGSA,A,3,05,06,11,13,20,29,,,,,,,2.8,1.4,2.4,1*2E
$GPGSV,2,1,06,05,59,302,45,06,25,099,42,11,56,065,46,13,46,169,45,0*63
$GPGSV,2,2,06,20,59,009,44,29,30,315,45,,,,,,,,,0*6A
$GNRMC,082625.00,A,3030.1669878,N,11425.7514563,E,0.05,0.00,200524,0.0,E,R,V*46
$GNGGA,082625.00,3030.1669878,N,11425.7514563,E,5,06,1.0,47.189,M,-13.676,M,1.0,0000*45
$GPGSA,A,3,05,06,11,13,20,29,,,,,,,2.8,1.4,2.4,1*2E
$GPGSV,2,1,06,05,59,302,45,06,25,099,41,11,56,065,45,13,46,169,46,0*60
$GPGSV,2,2,06,20,59,009,44,29,30,315,45,,,,,,,,,0*6A
$GNRMC,082626.00,A,3030.1669854,N,11425.7514540,E,0.24,0.00,200524,0.0,E,R,V*49
$GNGGA,082626.00,3030.1669854,N,11425.7514540,E,5,06,1.0,47.196,M,-13.676,M,0.0,0000*46
$GPGSA,A,3,05,06,11,13,20,29,,,,,,,2.8,1.4,2.4,1*2E
$GPGSV,2,1,06,05,59,302,45,06,25,099,41,11,56,065,46,13,46,169,45,0*60
$GPGSV,2,2,06,20,59,009,44,29,30,315,45,,,,,,,,,0*6A
$GNRMC,082627.00,A,3030.1669834,N,11425.7514492,E,0.17,0.00,200524,0.0,E,R,V*40
$GNGGA,082627.00,3030.1669834,N,11425.7514492,E,5,06,1.0,47.188,M,-13.676,M,-1.0,0000*6C
$GPGSA,A,3,05,06,11,13,20,29,,,,,,,2.8,1.4,2.4,1*2E
$GPGSV,2,1,06,05,59,302,45,06,25,099,41,11,56,065,46,13,46,169,45,0*60
$GPGSV,2,2,06,20,59,009,45,29,30,315,45,,,,,,,,,0*6B
$GNRMC,082628.00,A,3030.1669841,N,11425.7514508,E,0.07,0.00,200524,0.0,E,R,V*4E
$GNGGA,082628.00,3030.1669841,N,11425.7514508,E,5,06,1.0,47.199,M,-13.676,M,-1.0,0000*63
$GPGSA,A,3,05,06,11,13,20,29,,,,,,,2.8,1.4,2.4,1*2E
$GPGSV,2,1,06,05,59,302,45,06,25,099,42,11,56,065,45,13,46,169,46,0*63
$GPGSV,2,2,06,20,59,009,44,29,30,315,45,,,,,,,,,0*6A
$GNRMC,082629.00,A,3030.1669842,N,11425.7514495,E,0.14,0.00,200524,0.0,E,R,V*4B
$GNGGA,082629.00,3030.1669842,N,11425.7514495,E,5,06,1.0,47.205,M,-13.676,M,-1.0,0000*62
$GPGSA,A,3,05,06,11,13,20,29,,,,,,,2.8,1.4,2.4,1*2E
$GPGSV,2,1,06,05,59,302,45,06,25,099,42,11,56,065,45,13,46,169,45,0*60
$GPGSV,2,2,06,20,59,009,44,29,30,315,45,,,,,,,,,0*6A
$GNRMC,082630.00,A,3030.1669862,N,11425.7514491,E,0.07,0.00,200524,0.0,E,R,V*47
$GNGGA,082630.00,3030.1669862,N,11425.7514491,E,5,06,1.0,47.203,M,-13.676,M,0.0,0000*46
$GPGSA,A,3,05,06,11,13,20,29,,,,,,,2.8,1.4,2.4,1*2E
$GPGSV,2,1,06,05,59,302,45,06,25,099,41,11,56,065,45,13,46,169,45,0*63
$GPGSV,2,2,06,20,59,009,44,29,30,315,45,,,,,,,,,0*6A
$GNRMC,082631.00,A,3030.1669833,N,11425.7514455,E,0.05,0.00,200524,0.0,E,R,V*48
$GNGGA,082631.00,3030.1669833,N,11425.7514455,E,5,06,1.0,47.205,M,-13.676,M,-1.0,0000*61
$GPGSA,A,3,05,06,11,13,20,29,,,,,,,2.8,1.4,2.4,1*2E
$GPGSV,2,1,06,05,59,302,45,06,25,099,41,11,56,065,45,13,46,169,46,0*60
$GPGSV,2,2,06,20,59,009,44,29,30,315,45,,,,,,,,,0*6A
$GNRMC,082632.00,A,3030.1669879,N,11425.7514487,E,0.12,0.00,200524,0.0,E,R,V*4C
$GNGGA,082632.00,3030.1669879,N,11425.7514487,E,5,06,1.0,47.193,M,-13.676,M,0.0,0000*43
$GPGSA,A,3,05,06,11,13,20,29,,,,,,,2.8,1.4,2.4,1*2E
$GPGSV,2,1,06,05,59,302,45,06,25,099,41,11,56,065,45,13,46,169,45,0*63
$GPGSV,2,2,06,20,59,009,44,29,30,315,45,,,,,,,,,0*6A
$GNRMC,082633.00,A,3030.1669860,N,11425.7514451,E,0.11,0.00,200524,0.0,E,R,V*4D
$GNGGA,082633.00,3030.1669860,N,11425.7514451,E,5,06,1.0,47.196,M,-13.676,M,0.0,0000*44
$GPGSA,A,3,05,06,11,13,20,29,,,,,,,2.8,1.4,2.4,1*2E
$GPGSV,2,1,06,05,59,302,45,06,25,099,41,11,56,065,46,13,46,169,45,0*60
$GPGSV,2,2,06,20,59,009,44,29,30,315,45,,,,,,,,,0*6A
$GNRMC,082634.00,A,3030.1669873,N,11425.7514457,E,0.11,0.00,200524,0.0,E,R,V*4E
$GNGGA,082634.00,3030.1669873,N,11425.7514457,E,5,06,1.0,47.197,M,-13.676,M,1.0,0000*47
$GPGSA,A,3,05,06,11,13,20,29,,,,,,,2.8,1.4,2.4,1*2E
$GPGSV,2,1,06,05,59,302,45,06,25,099,41,11,56,065,46,13,46,169,45,0*60
$GPGSV,2,2,06,20,59,009,45,29,30,315,45,,,,,,,,,0*6B
$GNRMC,082635.00,A,3030.1669866,N,11425.7514442,E,0.07,0.00,200524,0.0,E,R,V*48
$GNGGA,082635.00,3030.1669866,N,11425.7514442,E,5,06,1.0,47.183,M,-13.676,M,0.0,0000*42
$GPGSA,A,3,05,06,11,13,20,29,,,,,,,2.8,1.4,2.4,1*2E
$GPGSV,2,1,06,05,59,302,45,06,25,099,41,11,56,065,45,13,46,169,46,0*60
$GPGSV,2,2,06,20,59,009,45,29,30,315,45,,,,,,,,,0*6B
$GNRMC,082636.00,A,3030.1669910,N,11425.7514470,E,0.15,0.00,200524,0.0,E,R,V*49
$GNGGA,082636.00,3030.1669910,N,11425.7514470,E,5,06,1.0,47.182,M,-13.676,M,1.0,0000*40
$GPGSA,A,3,05,06,11,13,20,29,,,,,,,2.8,1.4,2.4,1*2E
$GPGSV,2,1,06,05,59,302,45,06,25,099,41,11,56,065,45,13,46,169,45,0*63
$GPGSV,2,2,06,20,59,009,44,29,30,315,45,,,,,,,,,0*6A
$GNRMC,082637.00,A,3030.1669873,N,11425.7514450,E,0.07,0.00,200524,0.0,E,R,V*4D
$GNGGA,082637.00,3030.1669873,N,11425.7514450,E,5,06,1.0,47.190,M,-13.676,M,0.0,0000*45
$GPGSA,A,3,05,06,11,13,20,29,,,,,,,2.8,1.4,2.4,1*2E
$GPGSV,2,1,06,05,59,302,46,06,25,099,41,11,56,065,45,13,46,169,45,0*60
$GPGSV,2,2,06,20,59,009,44,29,30,315,45,,,,,,,,,0*6A
$GNRMC,082638.00,A,3030.1669894,N,11425.7514466,E,0.08,0.00,200524,0.0,E,R,V*41
$GNGGA,082638.00,3030.1669894,N,11425.7514466,E,5,06,1.0,47.190,M,-13.676,M,1.0,0000*47
$GPGSA,A,3,05,06,11,13,20,29,,,,,,,2.8,1.4,2.4,1*2E
$GPGSV,2,1,06,05,59,302,45,06,25,099,41,11,56,065,46,13,46,169,45,0*60
$GPGSV,2,2,06,20,59,009,44,29,30,315,45,,,,,,,,,0*6A
$GNRMC,082639.00,A,3030.1669897,N,11425.7514450,E,0.12,0.00,200524,0.0,E,R,V*4D
$GNGGA,082639.00,3030.1669897,N,11425.7514450,E,5,06,1.0,47.191,M,-13.676,M,0.0,0000*40
$GPGSA,A,3,05,06,11,13,20,29,,,,,,,2.8,1.4,2.4,1*2E
$GPGSV,2,1,06,05,59,302,45,06,24,099,41,11,56,065,46,13,46,169,45,0*61
$GPGSV,2,2,06,20,59,009,44,29,30,315,45,,,,,,,,,0*6A
$GNRMC,082640.00,A,3030.1669874,N,11425.7514423,E,0.05,0.00,200524,0.0,E,R,V*4C
$GNGGA,082640.00,3030.1669874,N,11425.7514423,E,5,06,1.0,47.200,M,-13.676,M,-1.0,0000*60
$GPGSA,A,3,05,06,11,13,20,29,,,,,,,2.8,1.4,2.4,1*2E
$GPGSV,2,1,06,05,59,302,45,06,24,099,41,11,56,065,45,13,46,169,45,0*62
$GPGSV,2,2,06,20,59,009,44,29,30,315,45,,,,,,,,,0*6A
$GNRMC,082641.00,A,3030.1669903,N,11425.7514457,E,0.04,0.00,200524,0.0,E,R,V*4E
$GNGGA,082641.00,3030.1669903,N,11425.7514457,E,5,06,1.0,47.189,M,-13.676,M,0.0,0000*4D
$GPGSA,A,3,05,06,11,13,20,29,,,,,,,2.8,1.4,2.4,1*2E
$GPGSV,2,1,06,05,59,302,45,06,24,099,41,11,56,065,45,13,46,169,46,0*61
$GPGSV,2,2,06,20,59,009,44,29,30,315,45,,,,,,,,,0*6A
$GNRMC,082642.00,A,3030.1669916,N,11425.7514454,E,0.15,0.00,200524,0.0,E,R,V*4A
$GNGGA,082642.00,3030.1669916,N,11425.7514454,E,5,06,1.0,47.201,M,-13.676,M,-1.0,0000*66
$GPGSA,A,3,05,06,11,13,20,29,,,,,,,2.8,1.4,2.4,1*2E
$GPGSV,2,1,06,05,59,302,44,06,24,099,41,11,56,065,45,13,46,169,45,0*63
$GPGSV,2,2,06,20,59,009,44,29,30,315,45,,,,,,,,,0*6A
$GNRMC,082643.00,A,3030.1669951,N,11425.7514482,E,0.03,0.00,200524,0.0,E,R,V*44
$GNGGA,082643.00,3030.1669951,N,11425.7514482,E,5,06,1.0,47.185,M,-13.676,M,0.0,0000*4C
$GPGSA,A,3,05,06,11,13,20,29,,,,,,,2.8,1.4,2.4,1*2E
$GPGSV,2,1,06,05,59,303,45,06,24,099,41,11,56,065,45,13,46,169,45,0*63
$GPGSV,2,2,06,20,59,009,44,29,30,315,45,,,,,,,,,0*6A
$GNRMC,082644.00,A,3030.1669950,N,11425.7514474,E,0.16,0.00,200524,0.0,E,R,V*4F
$GNGGA,082644.00,3030.1669950,N,11425.7514474,E,5,06,1.0,47.189,M,-13.676,M,-1.0,0000*63
$GPGSA,A,3,05,06,11,13,20,29,,,,,,,2.8,1.4,2.4,1*2E
