$GPGSA,A,1,06,11,,,,,,,,,,,0.0,0.0,0.0,1*2B
$GNRMC,082355.00,A,3030.1668819,N,11425.7511692,E,0.19,0.00,200524,0.0,E,R,V*47
$GNGGA,082355.00,3030.1668819,N,11425.7511692,E,5,05,1.0,46.814,M,-13.676,M,-1.0,0000*6B
$GPGSA,A,3,06,11,13,15,20,29,,,,,,,2.7,1.2,2.4,1*26
$GPGSV,2,1,07,06,25,098,39,11,57,062,45,12,15,231,40,13,45,169,44,0*62
$GPGSV,2,2,07,15,24,206,41,20,60,007,45,29,29,316,43,,,,,0*50
$GNRMC,082356.00,A,3030.1668828,N,11425.7511959,E,0.10,0.00,200524,0.0,E,R,V*47
$GNGGA,082356.00,3030.1668828,N,11425.7511959,E,5,05,1.0,46.953,M,-13.676,M,0.0,0000*4C
$GPGSA,A,3,06,11,13,15,20,29,,,,,,,2.7,1.2,2.4,1*26
$GPGSV,2,1,07,06,25,098,39,11,57,063,44,12,15,231,39,13,45,169,44,0*6C
$GPGSV,2,2,07,15,24,206,41,20,60,007,45,29,29,316,44,,,,,0*57
$GNRMC,082357.00,A,3030.1668681,N,11425.7512016,E,0.13,0.00,200524,0.0,E,R,V*49
$GNGGA,082357.00,3030.1668681,N,11425.7512016,E,5,06,1.0,47.170,M,-13.676,M,-1.0,0000*66
$GPGSA,A,3,05,06,11,13,15,20,29,,,,,,2.4,1.1,2.2,1*25
$GPGSV,2,1,08,05,59,300,46,06,25,098,39,11,57,063,44,12,15,231,39,0*66
$GPGSV,2,2,08,13,45,169,44,15,24,206,41,20,60,007,46,29,29,316,43,0*61
$GNRMC,082358.00,A,3030.1668735,N,11425.7512164,E,0.15,0.00,200524,0.0,E,R,V*4A
$GNGGA,082358.00,3030.1668735,N,11425.7512164,E,5,06,1.0,47.227,M,-13.676,M,0.0,0000*4E
$GPGSA,A,3,05,06,11,13,15,20,29,,,,,,2.4,1.1,2.2,1*25
$GPGSV,2,1,08,05,59,300,45,06,25,098,39,11,57,063,44,12,15,231,39,0*65
$GPGSV,2,2,08,13,45,169,44,15,24,206,41,20,60,007,46,29,29,316,43,0*61
$GNRMC,082359.00,A,3030.1668680,N,11425.7512190,E,0.08,0.00,200524,0.0,E,R,V*43
$GNGGA,082359.00,3030.1668680,N,11425.7512190,E,5,06,1.0,47.266,M,-13.676,M,0.0,0000*4E
$GPGSA,A,3,05,06,11,13,15,20,29,,,,,,2.4,1.1,2.2,1*25
$GPGSV,2,1,08,05,59,300,44,06,25,098,39,11,57,063,44,12,15,231,39,0*64
$GPGSV,2,2,08,13,45,169,44,15,24,206,42,20,60,007,45,29,29,316,43,0*61
$GNRMC,082400.00,A,3030.1668667,N,11425.7512030,E,0.16,0.00,200524,0.0,E,R,V*45
$GNGGA,082400.00,3030.1668667,N,11425.7512030,E,5,06,1.0,47.299,M,-13.676,M,1.0,0000*46
$GPGSA,A,3,05,06,11,13,15,20,29,,,,,,2.4,1.1,2.2,1*25
$GPGSV,2,1,08,05,59,300,44,06,25,098,39,11,57,063,44,12,15,231,39,0*64
$GPGSV,2,2,08,13,45,169,44,15,24,206,41,20,60,007,45,29,29,316,43,0*62
$GNRMC,082401.00,A,3030.1668602,N,11425.7511888,E,0.05,0.00,200524,0.0,E,R,V*4D
$GNGGA,082401.00,3030.1668602,N,11425.7511888,E,5,06,1.0,47.237,M,-13.676,M,0.0,0000*49
$GPGSA,A,3,05,06,11,13,15,20,29,,,,,,2.4,1.1,2.2,1*25
$GPGSV,2,1,08,05,59,300,45,06,25,098,39,11,57,063,44,12,15,231,39,0*65
$GPGSV,2,2,08,13,45,169,45,15,24,206,42,20,60,007,45,29,29,316,43,0*60
$GNRMC,082402.00,A,3030.1668636,N,11425.7511830,E,0.20,0.00,200524,0.0,E,R,V*4D
$GNGGA,082402.00,3030.1668636,N,11425.7511830,E,5,06,1.0,47.204,M,-13.676,M,1.0,0000*4F
$GPGSA,A,3,05,06,11,13,15,20,29,,,,,,2.4,1.1,2.2,1*25
$GPGSV,2,1,08,05,59,300,45,06,25,098,39,11,57,063,44,12,15,231,39,0*65
$GPGSV,2,2,08,13,45,169,45,15,24,206,41,20,60,007,45,29,29,316,43,0*63
$GNRMC,082403.00,A,3030.1668609,N,11425.7511802,E,0.19,0.00,200524,0.0,E,R,V*4B
$GNGGA,082403.00,3030.1668609,N,11425.7511802,E,5,06,1.0,47.217,M,-13.676,M,0.0,0000*40
$GPGSA,A,3,05,06,11,13,15,20,29,,,,,,2.4,1.1,2.2,1*25
$GPGSV,2,1,08,05,59,300,45,06,25,098,39,11,56,063,44,12,15,231,39,0*64
$GPGSV,2,2,08,13,45,169,44,15,24,206,41,20,60,007,46,29,29,316,44,0*66
$GNRMC,082404.00,A,3030.1668674,N,11425.7511702,E,0.11,0.00,200524,0.0,E,R,V*41
$GNGGA,082404.00,3030.1668674,N,11425.7511702,E,5,06,1.0,47.243,M,-13.676,M,1.0,0000*42
$GPGSA,A,3,05,06,11,13,15,20,29,,,,,,2.4,1.1,2.2,1*25
$GPGSV,2,1,08,05,59,300,45,06,25,098,39,11,56,063,44,12,15,231,39,0*64
$GPGSV,2,2,08,13,45,169,44,15,24,206,42,20,60,007,45,29,29,316,44,0*66
$GNRMC,082405.00,A,3030.1668662,N,11425.7511639,E,0.21,0.00,200524,0.0,E,R,V*4D
$GNGGA,082405.00,3030.1668662,N,11425.7511639,E,5,06,1.0,47.281,M,-13.676,M,0.0,0000*42
$GPGSA,A,3,05,06,11,13,15,20,29,,,,,,2.4,1.1,2.2,1*25
$GPGSV,2,1,08,05,59,300,45,06,25,098,39,11,56,063,44,12,15,231,39,0*64
$GPGSV,2,2,08,13,45,169,44,15,24,206,42,20,60,007,45,29,29,316,44,0*66
$GNRMC,082406.00,A,3030.1668711,N,11425.7511728,E,0.15,0.00,200524,0.0,E,R,V*4D
$GNGGA,082406.00,3030.1668711,N,11425.7511728,E,5,06,1.0,47.317,M,-13.676,M,-1.0,0000*67
$GPGSA,A,3,05,06,11,13,15,20,29,,,,,,2.4,1.1,2.2,1*25
$GPGSV,2,1,08,05,59,300,45,06,25,098,40,11,56,063,44,12,15,231,38,0*6B
$GPGSV,2,2,08,13,45,169,45,15,24,206,41,20,60,007,44,29,30,316,44,0*6D
$GNRMC,082407.00,A,3030.1669350,N,11425.7511506,E,0.11,0.00,200524,0.0,E,R,V*46
$GNGGA,082407.00,3030.1669350,N,11425.7511506,E,4,06,1.0,47.406,M,-13.676,M,0.0,0000*42
$GPGSA,A,3,05,06,11,13,15,20,29,,,,,,2.4,1.1,2.2,1*25
$GPGSV,2,1,08,05,59,300,45,06,25,098,39,11,56,063,45,12,15,231,38,0*64
$GPGSV,2,2,08,13,45,169,45,15,24,206,41,20,60,007,44,29,30,316,44,0*6D
$GNRMC,082408.00,A,3030.1669335,N,11425.7511499,E,0.03,0.00,200524,0.0,E,R,V*4E
$GNGGA,082408.00,3030.1669335,N,11425.7511499,E,4,06,1.0,47.391,M,-13.676,M,-1.0,0000*6C
$GPGSA,A,3,05,06,11,13,15,20,29,,,,,,2.4,1.1,2.2,1*25
$GPGSV,2,1,08,05,59,300,45,06,25,098,39,11,56,063,46,12,15,231,38,0*67
$GPGSV,2,2,08,13,45,169,45,15,24,206,41,20,60,007,44,29,30,316,45,0*6C
$GNRMC,082409.00,A,3030.1668749,N,11425.7511823,E,0.10,0.00,200524,0.0,E,R,V*4E
$GNGGA,082409.00,3030.1668749,N,11425.7511823,E,5,06,1.0,47.360,M,-13.676,M,0.0,0000*4D
$GPGSA,A,3,05,06,11,13,15,20,29,,,,,,2.4,1.1,2.2,1*25
$GPGSV,2,1,08,05,59,300,46,06,25,098,41,11,56,063,46,12,15,231,38,0*6B
$GPGSV,2,2,08,13,45,169,45,15,24,206,41,20,60,007,45,29,30,316,44,0*6C
$GNRMC,082410.00,A,3030.1668757,N,11425.7511797,E,0.06,0.00,200524,0.0,E,R,V*4E
$GNGGA,082410.00,3030.1668757,N,11425.7511797,E,5,06,1.0,47.360,M,-13.676,M,-1.0,0000*66
$GPGSA,A,3,05,06,11,13,15,20,29,,,,,,2.4,1.1,2.2,1*25
$GPGSV,2,1,08,05,59,300,46,06,25,098,41,11,56,063,46,12,15,231,38,0*6B
$GPGSV,2,2,08,13,45,169,45,15,24,206,41,20,60,007,45,29,30,316,44,0*6C
$GNRMC,082411.00,A,3030.1668857,N,11425.7511878,E,0.17,0.00,200524,0.0,E,R,V*4E
$GNGGA,082411.00,3030.1668857,N,11425.7511878,E,5,06,1.0,47.357,M,-13.676,M,0.0,0000*4E
$GPGSA,A,3,05,06,11,13,15,20,29,,,,,,2.4,1.1,2.2,1*25
$GPGSV,2,1,08,05,59,300,45,06,25,098,41,11,56,063,46,12,15,231,38,0*68
$GPGSV,2,2,08,13,45,169,45,15,24,206,41,20,60,007,45,29,30,316,45,0*6D
$GNRMC,082412.00,A,3030.1668888,N,11425.7511902,E,0.05,0.00,200524,0.0,E,R,V*40
$GNGGA,082412.00,3030.1668888,N,11425.7511902,E,5,06,1.0,47.390,M,-13.676,M,-1.0,0000*64
$GPGSA,A,3,05,06,11,13,15,20,29,,,,,,2.4,1.1,2.2,1*25
$GPGSV,2,1,08,05,59,300,45,06,25,098,41,11,56,063,46,12,15,231,38,0*68
$GPGSV,2,2,08,13,45,169,45,15,24,206,42,20,60,007,44,29,30,316,45,0*6F
$GNRMC,082413.00,A,3030.1668965,N,11425.7512017,E,0.13,0.00,200524,0.0,E,R,V*4A
$GNGGA,082413.00,3030.1668965,N,11425.7512017,E,5,06,1.0,47.382,M,-13.676,M,0.0,0000*46
$GPGSA,A,3,05,06,11,13,15,20,29,,,,,,2.4,1.1,2.2,1*25
$GPGSV,2,1,08,05,59,300,45,06,25,098,41,11,56,063,46,12,15,231,38,0*68
$GPGSV,2,2,08,13,45,169,45,15,24,206,41,20,60,007,44,29,30,316,45,0*6C
$GNRMC,082414.00,A,3030.1669037,N,11425.7512153,E,0.08,0.00,200524,0.0,E,R,V*49
$GNGGA,082414.00,3030.1669037,N,11425.7512153,E,5,06,1.0,47.357,M,-13.676,M,0.0,0000*47
$GPGSA,A,3,05,06,11,13,15,20,29,,,,,,2.4,1.1,2.2,1*25
$GPGSV,2,1,08,05,59,300,45,06,25,098,42,11,56,063,45,12,15,231,38,0*68
$GPGSV,2,2,08,13,45,169,45,15,24,206,42,20,60,007,44,29,30,316,44,0*6E
$GNRMC,082415.00,A,3030.1669142,N,11425.7512311,E,0.06,0.00,200524,0.0,E,R,V*41
$GNGGA,082415.00,3030.1669142,N,11425.7512311,E,5,06,1.0,47.356,M,-13.676,M,1.0,0000*41
$GPGSA,A,3,05,06,11,13,15,20,29,,,,,,2.4,1.1,2.2,1*25
$GPGSV,2,1,08,05,59,300,46,06,25,098,42,11,56,063,45,12,15,231,38,0*6B
$GPGSV,2,2,08,13,45,169,45,15,24,206,42,20,60,007,44,29,30,316,44,0*6E
$GNRMC,082416.00,A,3030.1669191,N,11425.7512394,E,0.17,0.00,200524,0.0,E,R,V*41
$GNGGA,082416.00,3030.1669191,N,11425.7512394,E,5,06,1.0,47.357,M,-13.676,M,0.0,0000*41
$GPGSA,A,3,05,06,11,13,15,20,29,,,,,,2.4,1.1,2.2,1*25
$GPGSV,2,1,08,05,59,300,45,06,25,098,42,11,56,063,46,12,15,231,38,0*6B
$GPGSV,2,2,08,13,45,169,45,15,24,206,42,20,60,007,45,29,30,316,45,0*6E
$GNRMC,082417.00,A,3030.1669294,N,11425.7512556,E,0.09,0.00,200524,0.0,E,R,V*41
$GNGGA,082417.00,3030.1669294,N,11425.7512556,E,5,06,1.0,47.359,M,-13.676,M,1.0,0000*41
$GPGSA,A,3,05,06,11,13,15,20,29,,,,,,2.4,1.1,2.2,1*25
$GPGSV,2,1,08,05,59,300,45,06,25,098,42,11,56,063,46,12,15,231,39,0*6A
$GPGSV,2,2,08,13,45,169,45,15,24,206,42,20,60,007,45,29,30,316,44,0*6F
$GNRMC,082418.00,A,3030.1669332,N,11425.7512693,E,0.08,0.00,200524,0.0,E,R,V*48
$GNGGA,082418.00,3030.1669332,N,11425.7512693,E,5,06,1.0,47.347,M,-13.676,M,0.0,0000*47
$GPGSA,A,3,05,06,11,13,15,20,29,,,,,,2.4,1.1,2.2,1*25
$GPGSV,2,1,08,05,59,300,45,06,25,098,42,11,56,063,46,12,15,231,38,0*6B
$GPGSV,2,2,08,13,45,169,45,15,24,206,42,20,60,007,44,29,30,316,44,0*6E
$GNRMC,082419.00,A,3030.1669329,N,11425.7512795,E,0.09,0.00,200524,0.0,E,R,V*45
$GNGGA,082419.00,3030.1669329,N,11425.7512795,E,5,06,1.0,47.353,M,-13.676,M,-1.0,0000*62
$GPGSA,A,3,05,06,11,13,15,20,29,,,,,,2.4,1.1,2.2,1*25
$GPGSV,2,1,08,05,59,300,45,06,25,098,42,11,56,063,46,12,15,231,39,0*6A
$GPGSV,2,2,08,13,45,169,45,15,24,206,42,20,60,007,44,29,30,316,44,0*6E
$GNRMC,082420.00,A,3030.1669300,N,11425.7512895,E,0.03,0.00,200524,0.0,E,R,V*41
$GNGGA,082420.00,3030.1669300,N,11425.7512895,E,5,06,1.0,47.347,M,-13.676,M,-1.0,0000*69
$GPGSA,A,3,05,06,11,13,15,20,29,,,,,,2.4,1.1,2.2,1*25
$GPGSV,2,1,08,05,59,300,45,06,25,098,42,11,56,063,45,12,15,231,39,0*69
$GPGSV,2,2,08,13,45,169,45,15,24,206,42,20,60,007,45,29,30,316,44,0*6F
$GNRMC,082421.00,A,3030.1669347,N,11425.7513060,E,0.14,0.00,200524,0.0,E,R,V*46
$GNGGA,082421.00,3030.1669347,N,11425.7513060,E,5,06,1.0,47.336,M,-13.676,M,-1.0,0000*6E
$GPGSA,A,3,05,06,11,13,15,20,29,,,,,,2.4,1.1,2.2,1*25
$GPGSV,2,1,08,05,59,300,45,06,25,098,42,11,56,063,45,12,15,231,39,0*69
$GPGSV,2,2,08,13,45,169,45,15,24,206,42,20,60,007,45,29,30,316,44,0*6F
$GNRMC,082422.00,A,3030.1669301,N,11425.7513127,E,0.13,0.00,200524,0.0,E,R,V*42
$GNGGA,082422.00,3030.1669301,N,11425.7513127,E,5,06,1.0,47.338,M,-13.676,M,-1.0,0000*63
$GPGSA,A,3,05,06,11,13,15,20,29,,,,,,2.4,1.1,2.2,1*25
$GPGSV,2,1,08,05,59,300,44,06,25,098,42,11,56,063,46,12,15,231,39,0*6B
$GPGSV,2,2,08,13,45,169,45,15,24,206,42,20,60,007,44,29,30,316,44,0*6E
$GNRMC,082423.00,A,3030.1669306,N,11425.7513223,E,0.04,0.00,200524,0.0,E,R,V*45
$GNGGA,082423.00,3030.1669306,N,11425.7513223,E,5,06,1.0,47.315,M,-13.676,M,0.0,0000*41
$GPGSA,A,3,05,06,11,13,15,20,29,,,,,,2.4,1.1,2.2,1*25
$GPGSV,2,1,08,05,59,300,44,06,25,098,42,11,56,063,46,12,15,231,38,0*6A
$GPGSV,2,2,08,13,45,169,45,15,24,206,42,20,60,007,44,29,30,316,44,0*6E
$GNRMC,082424.00,A,3030.1669307,N,11425.7513321,E,0.13,0.00,200524,0.0,E,R,V*46
$GNGGA,082424.00,3030.1669307,N,11425.7513321,E,5,06,1.0,47.304,M,-13.676,M,0.0,0000*44
$GPGSA,A,3,05,06,11,13,15,20,29,,,,,,2.4,1.1,2.2,1*25
$GPGSV,2,1,08,05,59,300,45,06,25,098,41,11,56,063,46,12,15,231,39,0*69
$GPGSV,2,2,08,13,45,169,45,15,24,206,41,20,60,007,45,29,30,316,44,0*6C
$GNRMC,082425.00,A,3030.1669298,N,11425.7513375,E,0.23,0.00,200524,0.0,E,R,V*42
$GNGGA,082425.00,3030.1669298,N,11425.7513375,E,5,06,1.0,47.302,M,-13.676,M,-1.0,0000*69
$GPGSA,A,3,05,06,11,13,15,20,29,,,,,,2.4,1.1,2.2,1*25
$GPGSV,2,1,08,05,59,300,45,06,25,098,41,11,56,063,45,12,15,231,38,0*6B
$GPGSV,2,2,08,13,45,169,45,15,24,206,42,20,60,007,45,29,30,316,44,0*6F
$GNRMC,082426.00,A,3030.1669307,N,11425.7513442,E,0.19,0.00,200524,0.0,E,R,V*4C
$GNGGA,082426.00,3030.1669307,N,11425.7513442,E,5,06,1.0,47.305,M,-13.676,M,0.0,0000*45
$GPGSA,A,3,05,06,11,13,15,20,29,,,,,,2.4,1.1,2.2,1*25
$GPGSV,2,1,08,05,59,300,45,06,25,098,41,11,56,063,46,12,15,231,38,0*68
$GPGSV,2,2,08,13,45,169,45,15,24,206,42,20,60,007,45,29,30,316,43,0*68
$GNRMC,082427.00,A,3030.1669299,N,11425.7513498,E,0.07,0.00,200524,0.0,E,R,V*43
$GNGGA,082427.00,3030.1669299,N,11425.7513498,E,5,06,1.0,47.292,M,-13.676,M,0.0,0000*4A
$GPGSA,A,3,05,06,11,13,15,20,29,,,,,,2.4,1.1,2.2,1*25
$GPGSV,2,1,08,05,59,300,45,06,25,098,41,11,56,063,46,12,15,231,39,0*69
$GPGSV,2,2,08,13,45,169,45,15,24,206,42,20,60,007,44,29,30,316,44,0*6E
$GNRMC,082428.00,A,3030.1669317,N,11425.7513559,E,0.11,0.00,200524,0.0,E,R,V*40
$GNGGA,082428.00,3030.1669317,N,11425.7513559,E,5,06,1.0,47.281,M,-13.676,M,1.0,0000*4D
$GPGSA,A,3,05,06,11,13,15,20,29,,,,,,2.4,1.1,2.2,1*25
$GPGSV,2,1,08,05,59,300,45,06,25,098,42,11,56,063,46,12,15,231,39,0*6A
$GPGSV,2,2,08,13,45,169,45,15,24,206,42,20,60,007,44,29,30,316,44,0*6E
$GNRMC,082429.00,A,3030.1669306,N,11425.7513613,E,0.09,0.00,200524,0.0,E,R,V*45
$GNGGA,082429.00,3030.1669306,N,11425.7513613,E,5,06,1.0,47.271,M,-13.676,M,0.0,0000*4F
$GPGSA,A,3,05,06,11,13,15,20,29,,,,,,2.4,1.1,2.2,1*25
$GPGSV,2,1,08,05,59,300,45,06,25,098,42,11,56,063,46,12,15,231,39,0*6A
$GPGSV,2,2,08,13,45,169,45,15,24,206,42,20,60,007,44,29,30,316,44,0*6E
$GNRMC,082430.00,A,3030.1669359,N,11425.7513674,E,0.07,0.00,200524,0.0,E,R,V*48
$GNGGA,082430.00,3030.1669359,N,11425.7513674,E,5,06,1.0,47.244,M,-13.676,M,1.0,0000*4B
$GPGSA,A,3,05,06,11,13,15,20,29,,,,,,2.4,1.1,2.2,1*25
$GPGSV,2,1,08,05,59,300,45,06,25,098,42,11,56,063,46,12,15,231,39,0*6A
$GPGSV,2,2,08,13,45,169,45,15,24,206,42,20,60,007,44,29,30,316,44,0*6E
$GNRMC,082431.00,A,3030.1669337,N,11425.7513719,E,0.17,0.00,200524,0.0,E,R,V*4A
$GNGGA,082431.00,3030.1669337,N,11425.7513719,E,5,06,1.0,47.235,M,-13.676,M,0.0,0000*4F
$GPGSA,A,3,05,06,11,13,15,20,29,,,,,,2.4,1.1,2.2,1*25
$GPGSV,2,1,08,05,59,300,45,06,25,098,42,11,56,063,46,12,15,231,39,0*6A
$GPGSV,2,2,08,13,45,169,45,15,24,206,42,20,60,007,44,29,30,316,44,0*6E
$GNRMC,082432.00,A,3030.1669338,N,11425.7513763,E,0.05,0.00,200524,0.0,E,R,V*48
$GNGGA,082432.00,3030.1669338,N,11425.7513763,E,5,06,1.0,47.250,M,-13.676,M,-1.0,0000*61
$GPGSA,A,3,05,06,11,13,15,20,29,,,,,,2.4,1.1,2.2,1*25
$GPGSV,2,1,08,05,59,300,45,06,25,098,42,11,56,063,46,12,15,231,39,0*6A
$GPGSV,2,2,08,13,45,169,45,15,24,206,42,20,60,007,45,29,30,316,44,0*6F
$GNRMC,082433.00,A,3030.1669405,N,11425.7513816,E,0.05,0.00,200524,0.0,E,R,V*4D
$GNGGA,082433.00,3030.1669405,N,11425.7513816,E,5,06,1.0,47.242,M,-13.676,M,0.0,0000*4B
$GPGSA,A,3,05,06,11,13,15,20,29,,,,,,2.4,1.1,2.2,1*25
$GPGSV,2,1,08,05,59,300,45,06,25,098,42,11,56,063,47,12,15,231,38,0*6A
$GPGSV,2,2,08,13,45,169,45,15,24,206,42,20,60,007,45,29,30,316,44,0*6F
$GNRMC,082434.00,A,3030.1669378,N,11425.7513830,E,0.05,0.00,200524,0.0,E,R,V*43
$GNGGA,082434.00,3030.1669378,N,11425.7513830,E,5,06,1.0,47.245,M,-13.676,M,-1.0,0000*6E
$GPGSA,A,3,05,06,11,13,15,20,29,,,,,,2.4,1.1,2.2,1*25
$GPGSV,2,1,08,05,59,300,45,06,25,098,42,11,56,063,46,12,15,231,38,0*6B
$GPGSV,2,2,08,13,45,169,45,15,24,206,42,20,60,007,45,29,30,316,44,0*6F
$GNRMC,082435.00,A,3030.1669443,N,11425.7513902,E,0.09,0.00,200524,0.0,E,R,V*41
$GNGGA,082435.00,3030.1669443,N,11425.7513902,E,5,06,1.0,47.251,M,-13.676,M,0.0,0000*49
$GPGSA,A,3,05,06,11,13,15,20,29,,,,,,2.4,1.1,2.2,1*25
$GPGSV,2,1,08,05,59,301,45,06,25,098,41,11,56,063,46,12,15,231,38,0*69
$GPGSV,2,2,08,13,45,169,45,15,24,206,42,20,60,007,45,29,30,316,44,0*6F
$GNRMC,082436.00,A,3030.1669433,N,11425.7513883,E,0.10,0.00,200524,0.0,E,R,V*45
$GNGGA,082436.00,3030.1669433,N,11425.7513883,E,5,06,1.0,47.258,M,-13.676,M,-1.0,0000*60
$GPGSA,A,3,05,06,11,13,15,20,29,,,,,,2.4,1.1,2.2,1*25
$GPGSV,2,1,08,05,59,301,45,06,25,098,41,11,56,063,45,12,15,231,38,0*6A
$GPGSV,2,2,08,13,45,169,45,15,24,206,42,20,60,007,44,29,30,316,44,0*6E
$GNRMC,082437.00,A,3030.1669493,N,11425.7513932,E,0.12,0.00,200524,0.0,E,R,V*47
$GNGGA,082437.00,3030.1669493,N,11425.7513932,E,5,06,1.0,47.252,M,-13.676,M,0.0,0000*46
$GPGSA,A,3,05,06,11,13,15,20,29,,,,,,2.4,1.1,2.2,1*25
$GPGSV,2,1,08,05,59,301,45,06,25,098,41,11,56,063,46,12,15,231,38,0*69
$GPGSV,2,2,08,13,45,169,45,15,24,206,42,20,60,007,45,29,30,316,44,0*6F
$GNRMC,082438.00,A,3030.1669495,N,11425.7513937,E,0.11,0.00,200524,0.0,E,R,V*48
$GNGGA,082438.00,3030.1669495,N,11425.7513937,E,5,06,1.0,47.271,M,-13.676,M,-1.0,0000*67
$GPGSA,A,3,05,06,11,13,15,20,29,,,,,,2.4,1.1,2.2,1*25
$GPGSV,2,1,08,05,59,301,45,06,25,098,41,11,56,063,46,12,15,231,38,0*69
$GPGSV,2,2,08,13,45,169,45,15,24,206,42,20,60,007,45,29,30,316,44,0*6F
$GNRMC,082439.00,A,3030.1669532,N,11425.7513945,E,0.18,0.00,200524,0.0,E,R,V*49
$GNGGA,082439.00,3030.1669532,N,11425.7513945,E,5,06,1.0,47.275,M,-13.676,M,0.0,0000*47
$GPGSA,A,3,05,06,11,13,15,20,29,,,,,,2.4,1.1,2.2,1*25
$GPGSV,2,1,07,05,59,301,45,06,25,098,41,11,56,063,46,13,45,169,45,0*66
$GPGSV,2,2,07,15,24,206,42,20,60,007,45,29,30,316,44,,,,,0*5C
$GNRMC,082440.00,A,3030.1669539,N,11425.7513968,E,0.08,0.00,200524,0.0,E,R,V*42
$GNGGA,082440.00,3030.1669539,N,11425.7513968,E,5,06,1.0,47.269,M,-13.676,M,-1.0,0000*6C
$GPGSA,A,3,05,06,11,13,15,20,29,,,,,,2.4,1.1,2.2,1*25
$GPGSV,2,1,07,05,59,301,45,06,25,098,41,11,56,063,46,13,45,169,45,0*66
$GPGSV,2,2,07,15,24,206,42,20,60,007,45,29,30,316,44,,,,,0*5C
$GNRMC,082441.00,A,3030.1669600,N,11425.7514033,E,0.07,0.00,200524,0.0,E,R,V*45
$GNGGA,082441.00,3030.1669600,N,11425.7514033,E,5,06,1.0,47.262,M,-13.676,M,0.0,0000*43
$GPGSA,A,3,05,06,11,13,15,20,29,,,,,,2.4,1.1,2.2,1*25
$GPGSV,2,1,07,05,59,301,45,06,25,098,41,11,56,063,46,13,45,169,45,0*66
$GPGSV,2,2,07,15,24,206,42,20,60,007,45,29,30,316,44,,,,,0*5C
$GNRMC,082442.00,A,3030.1669651,N,11425.7514103,E,0.05,0.00,200524,0.0,E,R,V*42
$GNGGA,082442.00,3030.1669651,N,11425.7514103,E,5,06,1.0,47.247,M,-13.676,M,0.0,0000*41
$GPGSA,A,3,05,06,11,13,15,20,29,,,,,,2.4,1.1,2.2,1*25
$GPGSV,2,1,07,05,59,301,45,06,25,098,41,11,56,063,46,13,45,169,45,0*66
$GPGSV,2,2,07,15,24,206,42,20,60,007,44,29,30,316,44,,,,,0*5D
$GNRMC,082443.00,A,3030.1669694,N,11425.7514149,E,0.08,0.00,200524,0.0,E,R,V*49
$GNGGA,082443.00,3030.1669694,N,11425.7514149,E,5,06,1.0,47.234,M,-13.676,M,1.0,0000*42
$GPGSA,A,3,05,06,11,13,15,20,29,,,,,,2.4,1.1,2.2,1*25
$GPGSV,2,1,07,05,59,301,45,06,25,098,41,11,56,063,47,13,45,169,45,0*67
$GPGSV,2,2,07,15,24,206,42,20,60,007,44,29,30,316,44,,,,,0*5D
$GNRMC,082444.00,A,3030.1669679,N,11425.7514175,E,0.20,0.00,200524,0.0,E,R,V*48
$GNGGA,082444.00,3030.1669679,N,11425.7514175,E,5,06,1.0,47.212,M,-13.676,M,0.0,0000*4C
$GPGSA,A,3,05,06,11,13,15,20,29,,,,,,2.4,1.1,2.2,1*25
$GPGSV,2,1,07,05,59,301,45,06,25,098,41,11,56,063,46,13,45,169,45,0*66
$GPGSV,2,2,07,15,24,206,42,20,60,007,44,29,30,316,44,,,,,0*5D
$GNRMC,082445.00,A,3030.1669715,N,11425.7514221,E,0.03,0.00,200524,0.0,E,R,V*41
$GNGGA,082445.00,3030.1669715,N,11425.7514221,E,5,06,1.0,47.180,M,-13.676,M,1.0,0000*4D
$GPGSA,A,3,05,06,11,13,15,20,29,,,,,,2.4,1.1,2.2,1*25
$GPGSV,2,1,07,05,59,301,45,06,25,098,41,11,56,063,46,13,45,169,45,0*66
$GPGSV,2,2,07,15,24,206,42,20,60,008,44,29,30,316,44,,,,,0*52
$GNRMC,082446.00,A,3030.1669714,N,11425.7514223,E,0.06,0.00,200524,0.0,E,R,V*44
$GNGGA,082446.00,3030.1669714,N,11425.7514223,E,5,06,1.0,47.165,M,-13.676,M,0.0,0000*47
$GPGSA,A,3,05,06,11,13,15,20,29,,,,,,2.4,1.1,2.2,1*25
$GPGSV,2,1,07,05,59,301,45,06,25,098,41,11,56,063,46,13,45,169,45,0*66
$GPGSV,2,2,07,15,24,206,42,20,60,008,44,29,30,316,44,,,,,0*52
$GNRMC,082447.00,A,3030.1669704,N,11425.7514270,E,0.09,0.00,200524,0.0,E,R,V*4D
$GNGGA,082447.00,3030.1669704,N,11425.7514270,E,5,06,1.0,47.159,M,-13.676,M,-1.0,0000*62
$GPGSA,A,3,05,06,11,13,15,20,29,,,,,,2.4,1.1,2.2,1*25
$GPGSV,2,1,07,05,59,301,45,06,25,098,42,11,56,063,46,13,45,169,45,0*65
$GPGSV,2,2,07,15,24,206,42,20,60,008,44,29,30,316,44,,,,,0*52
$GNRMC,082448.00,A,3030.1669703,N,11425.7514293,E,0.09,0.00,200524,0.0,E,R,V*48
$GNGGA,082448.00,3030.1669703,N,11425.7514293,E,5,06,1.0,47.138,M,-13.676,M,0.0,0000*4C
$GPGSA,A,3,05,06,11,13,15,20,29,,,,,,2.4,1.1,2.2,1*25
$GPGSV,2,1,07,05,59,301,45,06,25,098,41,11,56,063,46,13,45,169,45,0*66
$GPGSV,2,2,07,15,25,206,42,20,60,008,44,29,30,316,44,,,,,0*53
$GNRMC,082449.00,A,3030.1669673,N,11425.7514327,E,0.04,0.00,200524,0.0,E,R,V*4C
$GNGGA,082449.00,3030.1669673,N,11425.7514327,E,5,06,1.0,47.128,M,-13.676,M,-1.0,0000*68
$GPGSA,A,3,05,06,11,13,15,20,29,,,,,,2.4,1.1,2.2,1*25
$GPGSV,2,1,07,05,59,301,45,06,25,098,41,11,56,063,46,13,45,169,45,0*66
$GPGSV,2,2,07,15,25,206,42,20,60,008,44,29,30,316,44,,,,,0*53
$GNRMC,082450.00,A,3030.1669695,N,11425.7514346,E,0.10,0.00,200524,0.0,E,R,V*4E
$GNGGA,082450.00,3030.1669695,N,11425.7514346,E,5,06,1.0,47.109,M,-13.676,M,0.0,0000*40
$GPGSA,A,3,05,06,11,13,15,20,29,,,,,,2.4,1.1,2.2,1*25
$GPGSV,2,1,07,05,59,301,45,06,25,098,41,11,56,063,46,13,45,169,45,0*66
$GPGSV,2,2,07,15,25,206,42,20,60,008,44,29,30,316,44,,,,,0*53
$GNRMC,082451.00,A,3030.1669665,N,11425.7514331,E,0.06,0.00,200524,0.0,E,R,V*47
$GNGGA,082451.00,3030.1669665,N,11425.7514331,E,5,06,1.0,47.110,M,-13.676,M,-1.0,0000*6A
$GPGSA,A,3,05,06,11,13,15,20,29,,,,,,2.4,1.1,2.2,1*25
$GPGSV,2,1,07,05,59,301,44,06,25,098,41,11,56,063,46,13,45,169,45,0*67
$GPGSV,2,2,07,15,25,206,42,20,60,008,44,29,30,316,44,,,,,0*53
$GNRMC,082452.00,A,3030.1669683,N,11425.7514383,E,0.10,0.00,200524,0.0,E,R,V*42
$GNGGA,082452.00,3030.1669683,N,11425.7514383,E,5,06,1.0,47.095,M,-13.676,M,0.0,0000*48
$GPGSA,A,3,05,06,11,13,15,20,29,,,,,,2.4,1.1,2.2,1*25
$GPGSV,2,1,07,05,59,301,45,06,25,098,42,11,56,063,46,13,45,169,45,0*65
$GPGSV,2,2,07,15,25,206,42,20,60,008,44,29,30,316,44,,,,,0*53
$GNRMC,082453.00,A,3030.1669657,N,11425.7514372,E,0.11,0.00,200524,0.0,E,R,V*45
$GNGGA,082453.00,3030.1669657,N,11425.7514372,E,5,06,1.0,47.087,M,-13.676,M,-1.0,0000*61
$GPGSA,A,3,05,06,11,13,15,20,29,,,,,,2.4,1.1,2.2,1*25
$GPGSV,2,1,07,05,59,301,45,06,25,098,41,11,56,063,46,13,45,169,45,0*66
$GPGSV,2,2,07,15,25,206,42,20,60,008,45,29,30,316,44,,,,,0*52
$GNRMC,082454.00,A,3030.1669697,N,11425.7514384,E,0.20,0.00,200524,0.0,E,R,V*45
$GNGGA,082454.00,3030.1669697,N,11425.7514384,E,5,06,1.0,47.068,M,-13.676,M,0.0,0000*4E
$GPGSA,A,3,05,06,11,13,15,20,29,,,,,,2.4,1.1,2.2,1*25
$GPGSV,2,1,07,05,59,301,45,06,25,098,42,11,56,063,46,13,45,169,45,0*65
$GPGSV,2,2,07,15,25,206,42,20,60,008,44,29,30,316,44,,,,,0*53
$GNRMC,082455.00,A,3030.1669655,N,11425.7514330,E,0.03,0.00,200524,0.0,E,R,V*44
$GNGGA,082455.00,3030.1669655,N,11425.7514330,E,5,06,1.0,47.069,M,-13.676,M,-1.0,0000*63
$GPGSA,A,3,05,06,11,13,15,20,29,,,,,,2.4,1.1,2.2,1*25
$GPGSV,2,1,07,05,59,301,45,06,25,098,42,11,56,063,46,13,45,169,45,0*65
$GPGSV,2,2,07,15,25,206,42,20,60,008,44,29,30,316,44,,,,,0*53
$GNRMC,082456.00,A,3030.1669671,N,11425.7514321,E,0.07,0.00,200524,0.0,E,R,V*45
$GNGGA,082456.00,3030.1669671,N,11425.7514321,E,5,06,1.0,47.060,M,-13.676,M,0.0,0000*43
$GPGSA,A,3,05,06,11,13,15,20,29,,,,,,2.4,1.1,2.2,1*25
$GPGSV,2,1,07,05,59,301,45,06,25,098,41,11,56,063,46,13,45,169,46,0*65
$GPGSV,2,2,07,15,25,206,42,20,60,008,44,29,30,316,44,,,,,0*53
$GNRMC,082457.00,A,3030.1669636,N,11425.7514298,E,0.14,0.00,200524,0.0,E,R,V*46
$GNGGA,082457.00,3030.1669636,N,11425.7514298,E,5,06,1.0,47.086,M,-13.676,M,0.0,0000*4A
$GPGSA,A,3,05,06,11,13,15,20,29,,,,,,2.4,1.1,2.2,1*25
$GPGSV,2,1,07,05,59,301,45,06,25,098,41,11,56,063,45,13,45,169,46,0*66
$GPGSV,2,2,07,15,25,206,42,20,60,008,44,29,30,316,44,,,,,0*53
$GNRMC,082458.00,A,3030.1669640,N,11425.7514316,E,0.05,0.00,200524,0.0,E,R,V*4F
$GNGGA,082458.00,3030.1669640,N,11425.7514316,E,5,06,1.0,47.071,M,-13.676,M,1.0,0000*4A
$GPGSA,A,3,05,06,11,13,15,20,29,,,,,,2.4,1.1,2.2,1*25
$GPGSV,2,1,07,05,59,301,45,06,25,098,42,11,56,063,45,13,45,169,46,0*65
$GPGSV,2,2,07,15,25,206,42,20,60,008,44,29,30,316,45,,,,,0*52
$GNRMC,082459.00,A,3030.1669613,N,11425.7514286,E,0.09,0.00,200524,0.0,E,R,V*4C
$GNGGA,082459.00,3030.1669613,N,11425.7514286,E,5,06,1.0,47.057,M,-13.676,M,0.0,0000*40
$GPGSA,A,3,05,06,11,13,15,20,29,,,,,,2.4,1.1,2.2,1*25
$GPGSV,2,1,07,05,59,301,45,06,25,098,41,11,56,063,45,13,45,169,45,0*65
$GPGSV,2,2,07,15,25,206,42,20,60,008,44,29,30,316,44,,,,,0*53
$GNRMC,082500.00,A,3030.1669581,N,11425.7514257,E,0.06,0.00,200524,0.0,E,R,V*4A
$GNGGA,082500.00,3030.1669581,N,11425.7514257,E,5,06,1.0,47.062,M,-13.676,M,-1.0,0000*63
$GPGSA,A,3,05,06,11,13,15,20,29,,,,,,2.4,1.1,2.2,1*25
$GPGSV,2,1,07,05,59,301,45,06,25,098,41,11,56,063,46,13,45,169,45,0*66
$GPGSV,2,2,07,15,25,206,42,20,60,008,44,29,30,316,45,,,,,0*52
$GNRMC,082501.00,A,3030.1669555,N,11425.7514211,E,0.09,0.00,200524,0.0,E,R,V*4F
$GNGGA,082501.00,3030.1669555,N,11425.7514211,E,5,06,1.0,47.066,M,-13.676,M,-1.0,0000*6D
$GPGSA,A,3,05,06,11,13,15,20,29,,,,,,2.4,1.1,2.2,1*25
$GPGSV,2,1,07,05,59,301,45,06,25,098,42,11,56,063,46,13,45,169,46,0*66
$GPGSV,2,2,07,15,25,206,42,20,60,008,44,29,30,316,44,,,,,0*53
$GNRMC,082502.00,A,3030.1669531,N,11425.7514213,E,0.08,0.00,200524,0.0,E,R,V*4D
$GNGGA,082502.00,3030.1669531,N,11425.7514213,E,5,06,1.0,47.073,M,-13.676,M,-1.0,0000*6A
$GPGSA,A,3,05,06,11,13,15,20,29,,,,,,2.4,1.1,2.2,1*25
$GPGSV,2,1,07,05,59,301,45,06,25,098,42,11,56,063,47,13,45,169,45,0*64
$GPGSV,2,2,07,15,25,206,42,20,60,008,44,29,30,316,44,,,,,0*53
$GNRMC,082503.00,A,3030.1669512,N,11425.7514195,E,0.06,0.00,200524,0.0,E,R,V*4E
$GNGGA,082503.00,3030.1669512,N,11425.7514195,E,5,06,1.0,47.079,M,-13.676,M,-1.0,0000*6D
$GPGSA,A,3,05,06,11,13,15,20,29,,,,,,2.4,1.1,2.2,1*25
$GPGSV,2,1,07,05,59,301,46,06,25,098,41,11,56,063,46,13,45,169,45,0*65
$GPGSV,2,2,07,15,25,206,42,20,60,008,44,29,30,316,44,,,,,0*53
$GNRMC,082504.00,A,3030.1669490,N,11425.7514178,E,0.02,0.00,200524,0.0,E,R,V*45
$GNGGA,082504.00,3030.1669490,N,11425.7514178,E,5,06,1.0,47.086,M,-13.676,M,-1.0,0000*62
$GPGSA,A,3,05,06,11,13,15,20,29,,,,,,2.4,1.1,2.2,1*25
$GPGSV,2,1,07,05,59,301,46,06,25,098,42,11,56,063,46,13,45,169,45,0*66
$GPGSV,2,2,07,15,25,206,42,20,60,008,44,29,30,316,44,,,,,0*53
$GNRMC,082505.00,A,3030.1669489,N,11425.7514168,E,0.11,0.00,200524,0.0,E,R,V*4F
$GNGGA,082505.00,3030.1669489,N,11425.7514168,E,5,06,1.0,47.082,M,-13.676,M,-1.0,0000*6E
$GPGSA,A,3,05,06,11,13,15,20,29,,,,,,2.4,1.1,2.2,1*25
$GPGSV,2,1,07,05,59,301,45,06,25,098,42,11,56,063,46,13,45,169,45,0*65
$GPGSV,2,2,07,15,25,206,42,20,60,008,44,29,30,316,44,,,,,0*53
$GNRMC,082506.00,A,3030.1669518,N,11425.7514204,E,0.03,0.00,200524,0.0,E,R,V*4F
$GNGGA,082506.00,3030.1669518,N,11425.7514204,E,5,06,1.0,47.087,M,-13.676,M,0.0,0000*44
$GPGSA,A,3,05,06,11,13,15,20,29,,,,,,2.4,1.1,2.2,1*25
$GPGSV,2,1,07,05,59,301,45,06,25,098,42,11,56,063,46,13,45,169,45,0*65
$GPGSV,2,2,07,15,25,206,42,20,60,008,44,29,30,316,44,,,,,0*53
$GNRMC,082507.00,A,3030.1669499,N,11425.7514194,E,0.23,0.00,200524,0.0,E,R,V*4E
$GNGGA,082507.00,3030.1669499,N,11425.7514194,E,5,06,1.0,47.072,M,-13.676,M,0.0,0000*4D
$GPGSA,A,3,05,06,11,13,15,20,29,,,,,,2.4,1.1,2.2,1*25
$GPGSV,2,1,07,05,59,301,46,06,25,098,42,11,56,063,46,13,45,169,46,0*65
$GPGSV,2,2,07,15,25,206,42,20,60,008,44,29,30,316,45,,,,,0*52
$GNRMC,082508.00,A,3030.1669509,N,11425.7514209,E,0.14,0.00,200524,0.0,E,R,V*4A
$GNGGA,082508.00,3030.1669509,N,11425.7514209,E,5,06,1.0,47.078,M,-13.676,M,0.0,0000*47
$GPGSA,A,3,05,06,11,13,15,20,29,,,,,,2.4,1.1,2.2,1*25
$GPGSV,2,1,07,05,59,301,46,06,25,098,42,11,56,064,45,13,45,169,46,0*61
$GPGSV,2,2,07,15,25,206,42,20,60,008,44,29,30,316,45,,,,,0*52
$GNRMC,082509.00,A,3030.1669547,N,11425.7514245,E,0.17,0.00,200524,0.0,E,R,V*4A
$GNGGA,082509.00,3030.1669547,N,11425.7514245,E,5,06,1.0,47.074,M,-13.676,M,1.0,0000*49
$GPGSA,A,3,05,06,11,13,15,20,29,,,,,,2.4,1.1,2.2,1*25
$GPGSV,2,1,07,05,59,301,46,06,25,098,42,11,56,064,45,13,45,169,45,0*62
$GPGSV,2,2,07,15,25,206,42,20,60,008,44,29,30,316,45,,,,,0*52
$GNRMC,082510.00,A,3030.1669529,N,11425.7514222,E,0.10,0.00,200524,0.0,E,R,V*4C
$GNGGA,082510.00,3030.1669529,N,11425.7514222,E,5,06,1.0,47.093,M,-13.676,M,0.0,0000*40
$GPGSA,A,3,05,06,11,13,15,20,29,,,,,,2.4,1.1,2.2,1*25
$GPGSV,2,1,07,05,59,301,46,06,25,098,42,11,56,064,45,13,45,169,46,0*61
$GPGSV,2,2,07,15,25,206,42,20,60,008,44,29,30,316,45,,,,,0*52
$GNRMC,082511.00,A,3030.1669546,N,11425.7514209,E,0.09,0.00,200524,0.0,E,R,V*45
$GNGGA,082511.00,3030.1669546,N,11425.7514209,E,5,06,1.0,47.110,M,-13.676,M,0.0,0000*4B
$GPGSA,A,3,05,06,11,13,15,20,29,,,,,,2.4,1.1,2.2,1*25
$GPGSV,2,1,07,05,59,301,45,06,25,098,42,11,56,064,45,13,45,169,46,0*62
$GPGSV,2,2,07,15,25,206,42,20,60,008,44,29,30,316,45,,,,,0*52
$GNRMC,082512.00,A,3030.1669569,N,11425.7514189,E,0.08,0.00,200524,0.0,E,R,V*41
$GNGGA,082512.00,3030.1669569,N,11425.7514189,E,5,06,1.0,47.132,M,-13.676,M,-1.0,0000*62
$GPGSA,A,3,05,06,11,13,15,20,29,,,,,,2.4,1.1,2.2,1*25
$GPGSV,2,1,07,05,59,301,46,06,25,098,42,11,56,064,46,13,45,169,46,0*62
$GPGSV,2,2,07,15,25,206,42,20,60,008,44,29,30,316,45,,,,,0*52
$GNRMC,082513.00,A,3030.1669581,N,11425.7514219,E,0.09,0.00,200524,0.0,E,R,V*4D
$GNGGA,082513.00,3030.1669581,N,11425.7514219,E,5,06,1.0,47.147,M,-13.676,M,-1.0,0000*6D
$GPGSA,A,3,05,06,11,13,15,20,29,,,,,,2.4,1.1,2.2,1*25
$GPGSV,2,1,07,05,59,301,45,06,25,098,42,11,56,064,46,13,45,169,45,0*62
$GPGSV,2,2,07,15,25,206,42,20,60,008,44,29,30,316,45,,,,,0*52
$GNRMC,082514.00,A,3030.1669618,N,11425.7514247,E,0.12,0.00,200524,0.0,E,R,V*48
$GNGGA,082514.00,3030.1669618,N,11425.7514247,E,5,06,1.0,47.149,M,-13.676,M,0.0,0000*40
$GPGSA,A,3,05,06,11,13,15,20,29,,,,,,2.4,1.1,2.2,1*25
$GPGSV,2,1,07,05,59,301,46,06,25,098,42,11,56,064,47,13,45,169,45,0*60
$GPGSV,2,2,07,15,25,206,42,20,60,008,44,29,30,316,45,,,,,0*52
$GNRMC,082515.00,A,3030.1669629,N,11425.7514236,E,0.06,0.00,200524,0.0,E,R,V*48
$GNGGA,082515.00,3030.1669629,N,11425.7514236,E,5,06,1.0,47.164,M,-13.676,M,-1.0,0000*66
$GPGSA,A,3,05,06,11,13,15,20,29,,,,,,2.4,1.1,2.2,1*25
$GPGSV,2,1,07,05,59,301,46,06,25,098,42,11,56,064,47,13,45,169,46,0*63
$GPGSV,2,2,07,15,25,206,42,20,60,008,45,29,30,316,45,,,,,0*53
$GNRMC,082516.00,A,3030.1669678,N,11425.7514256,E,0.05,0.00,200524,0.0,E,R,V*4A
$GNGGA,082516.00,3030.1669678,N,11425.7514256,E,5,06,1.0,47.167,M,-13.676,M,0.0,0000*48
$GPGSA,A,3,05,06,11,13,15,20,29,,,,,,2.4,1.1,2.2,1*25
$GPGSV,2,1,07,05,59,301,45,06,25,098,42,11,56,064,46,13,45,169,46,0*61
$GPGSV,2,2,07,15,25,206,42,20,60,008,45,29,30,316,45,,,,,0*53
$GNRMC,082517.00,A,3030.1669690,N,11425.7514243,E,0.06,0.00,200524,0.0,E,R,V*4A
$GNGGA,082517.00,3030.1669690,N,11425.7514243,E,5,06,1.0,47.177,M,-13.676,M,-1.0,0000*66
$GPGSA,A,3,05,06,11,13,15,20,29,,,,,,2.4,1.1,2.2,1*25
$GPGSV,2,1,07,05,59,301,45,06,25,098,42,11,56,064,46,13,45,169,46,0*61
$GPGSV,2,2,07,15,25,206,42,20,60,008,44,29,30,316,45,,,,,0*52
$GNRMC,082518.00,A,3030.1669721,N,11425.7514244,E,0.03,0.00,200524,0.0,E,R,V*4C
$GNGGA,082518.00,3030.1669721,N,11425.7514244,E,5,06,1.0,47.174,M,-13.676,M,0.0,0000*4A
$GPGSA,A,3,05,06,11,13,15,20,29,,,,,,2.4,1.1,2.2,1*25
$GPGSV,2,1,07,05,59,301,45,06,25,098,42,11,56,064,46,13,45,169,46,0*61
$GPGSV,2,2,07,15,25,206,42,20,60,008,45,29,30,316,44,,,,,0*52
$GNRMC,082519.00,A,3030.1669744,N,11425.7514237,E,0.07,0.00,200524,0.0,E,R,V*4E
$GNGGA,082519.00,3030.1669744,N,11425.7514237,E,5,06,1.0,47.192,M,-13.676,M,-1.0,0000*68
$GPGSA,A,3,05,06,11,13,15,20,29,,,,,,2.4,1.1,2.2,1*25
$GPGSV,2,1,07,05,59,301,46,06,25,098,41,11,56,064,46,13,45,169,46,0*61
$GPGSV,2,2,07,15,25,206,42,20,60,008,44,29,30,316,44,,,,,0*53
$GNRMC,082520.00,A,3030.1669773,N,11425.7514261,E,0.05,0.00,200524,0.0,E,R,V*41
$GNGGA,082520.00,3030.1669773,N,11425.7514261,E,5,06,1.0,47.195,M,-13.676,M,0.0,0000*4E
$GPGSA,A,3,05,06,11,13,15,20,29,,,,,,2.4,1.1,2.2,1*25
$GPGSV,2,1,07,05,59,301,46,06,25,098,42,11,56,064,46,13,45,169,46,0*62
$GPGSV,2,2,07,15,25,206,42,20,60,008,44,29,30,316,45,,,,,0*52
$GNRMC,082521.00,A,3030.1669779,N,11425.7514243,E,0.05,0.00,200524,0.0,E,R,V*4A
$GNGGA,082521.00,3030.1669779,N,11425.7514243,E,5,06,1.0,47.209,M,-13.676,M,-1.0,0000*6F
$GPGSA,A,3,05,06,11,13,15,20,29,,,,,,2.4,1.1,2.2,1*25
$GPGSV,2,1,07,05,59,301,46,06,25,098,42,11,56,064,46,13,45,169,45,0*61
$GPGSV,2,2,07,15,25,206,42,20,59,008,44,29,30,316,44,,,,,0*59
$GNRMC,082522.00,A,3030.1669814,N,11425.7514275,E,0.10,0.00,200524,0.0,E,R,V*4C
$GNGGA,082522.00,3030.1669814,N,11425.7514275,E,5,06,1.0,47.200,M,-13.676,M,0.0,0000*48
$GPGSA,A,3,05,06,11,13,15,20,29,,,,,,2.4,1.1,2.2,1*25
$GPGSV,2,1,07,05,59,301,46,06,25,098,42,11,56,064,46,13,45,169,45,0*61
$GPGSV,2,2,07,15,25,206,42,20,59,008,44,29,30,316,44,,,,,0*59
$GNRMC,082523.00,A,3030.1669831,N,11425.7514260,E,0.11,0.00,200524,0.0,E,R,V*4F
$GNGGA,082523.00,3030.1669831,N,11425.7514260,E,5,06,1.0,47.205,M,-13.676,M,0.0,0000*4F
$GPGSA,A,3,05,06,11,13,15,20,29,,,,,,2.4,1.1,2.2,1*25
$GPGSV,2,1,07,05,59,301,46,06,25,098,42,11,56,064,46,13,45,169,45,0*61
$GPGSV,2,2,07,15,25,206,42,20,59,008,45,29,30,316,45,,,,,0*59
$GNRMC,082524.00,A,3030.1669861,N,11425.7514263,E,0.13,0.00,200524,0.0,E,R,V*4C
$GNGGA,082524.00,3030.1669861,N,11425.7514263,E,5,06,1.0,47.195,M,-13.676,M,1.0,0000*45
$GPGSA,A,3,05,06,11,13,15,20,29,,,,,,2.4,1.1,2.2,1*25
$GPGSV,2,1,07,05,59,301,46,06,25,098,41,11,56,064,47,13,45,169,46,0*60
$GPGSV,2,2,07,15,25,206,42,20,59,008,45,29,30,316,44,,,,,0*58
$GNRMC,082525.00,A,3030.1669874,N,11425.7514263,E,0.09,0.00,200524,0.0,E,R,V*42
$GNGGA,082525.00,3030.1669874,N,11425.7514263,E,5,06,1.0,47.192,M,-13.676,M,0.0,0000*46
$GPGSA,A,3,05,06,11,13,15,20,29,,,,,,2.4,1.1,2.2,1*25
$GPGSV,2,1,07,05,59,301,45,06,25,098,41,11,56,064,46,13,45,169,45,0*61
$GPGSV,2,2,07,15,25,206,42,20,59,008,45,29,30,316,45,,,,,0*59
$GNRMC,082526.00,A,3030.1669875,N,11425.7514266,E,0.15,0.00,200524,0.0,E,R,V*48
$GNGGA,082526.00,3030.1669875,N,11425.7514266,E,5,06,1.0,47.192,M,-13.676,M,1.0,0000*40
$GPGSA,A,3,05,06,11,13,15,20,29,,,,,,2.4,1.1,2.2,1*25
$GPGSV,2,1,07,05,59,301,45,06,25,098,41,11,56,064,46,13,45,169,45,0*61
$GPGSV,2,2,07,15,25,206,42,20,59,008,44,29,30,316,45,,,,,0*58
$GNRMC,082527.00,A,3030.1669882,N,11425.7514256,E,0.10,0.00,200524,0.0,E,R,V*47
$GNGGA,082527.00,3030.1669882,N,11425.7514256,E,5,06,1.0,47.199,M,-13.676,M,0.0,0000*40
$GPGSA,A,3,05,06,11,13,15,20,29,,,,,,2.4,1.1,2.2,1*25
$GPGSV,2,1,07,05,59,301,45,06,25,098,41,11,56,064,46,13,45,169,45,0*61
$GPGSV,2,2,07,15,25,206,42,20,59,008,44,29,30,316,44,,,,,0*59
$GNRMC,082528.00,A,3030.1669859,N,11425.7514225,E,0.08,0.00,200524,0.0,E,R,V*43
$GNGGA,082528.00,3030.1669859,N,11425.7514225,E,5,06,1.0,47.209,M,-13.676,M,-1.0,0000*6B
$GPGSA,A,3,05,06,11,13,15,20,29,,,,,,2.4,1.1,2.2,1*25
$GPGSV,2,1,07,05,59,301,45,06,25,098,41,11,56,064,45,13,45,169,45,0*62
$GPGSV,2,2,07,15,25,206,42,20,59,008,44,29,30,316,44,,,,,0*59
$GNRMC,082529.00,A,3030.1669863,N,11425.7514278,E,0.10,0.00,200524,0.0,E,R,V*4A
$GNGGA,082529.00,3030.1669863,N,11425.7514278,E,5,06,1.0,47.187,M,-13.676,M,0.0,0000*42
$GPGSA,A,3,05,06,11,13,15,20,29,,,,,,2.4,1.1,2.2,1*25
$GPGSV,2,1,07,05,59,301,45,06,25,098,41,11,56,064,46,13,45,169,45,0*61
$GPGSV,2,2,07,15,25,206,42,20,59,008,44,29,30,316,44,,,,,0*59
$GNRMC,082530.00,A,3030.1669865,N,11425.7514273,E,0.07,0.00,200524,0.0,E,R,V*49
$GNGGA,082530.00,3030.1669865,N,11425.7514273,E,5,06,1.0,47.186,M,-13.676,M,-1.0,0000*6A
$GPGSA,A,3,05,06,11,13,15,20,29,,,,,,2.4,1.1,2.2,1*25
$GPGSV,2,1,07,05,59,301,45,06,25,098,41,11,56,064,46,13,45,169,45,0*61
$GPGSV,2,2,07,15,25,206,42,20,59,008,44,29,30,316,44,,,,,0*59
$GNRMC,082531.00,A,3030.1669871,N,11425.7514306,E,0.06,0.00,200524,0.0,E,R,V*4F
$GNGGA,082531.00,3030.1669871,N,11425.7514306,E,5,06,1.0,47.174,M,-13.676,M,0.0,0000*4C
$GPGSA,A,3,05,06,11,13,15,20,29,,,,,,2.4,1.1,2.2,1*25
$GPGSV,2,1,07,05,59,301,45,06,25,098,41,11,56,064,45,13,45,169,45,0*62
$GPGSV,2,2,07,15,25,206,42,20,59,008,44,29,30,316,45,,,,,0*58
$GNRMC,082532.00,A,3030.1669844,N,11425.7514313,E,0.13,0.00,200524,0.0,E,R,V*4A
$GNGGA,082532.00,3030.1669844,N,11425.7514313,E,5,06,1.0,47.168,M,-13.676,M,-1.0,0000*6C
$GPGSA,A,3,05,06,11,13,15,20,29,,,,,,2.4,1.1,2.2,1*25
$GPGSV,2,1,07,05,59,301,45,06,25,098,41,11,56,064,45,13,45,169,45,0*62
$GPGSV,2,2,07,15,25,206,42,20,59,008,44,29,30,316,45,,,,,0*58
$GNRMC,082533.00,A,3030.1669866,N,11425.7514332,E,0.10,0.00,200524,0.0,E,R,V*4B
$GNGGA,082533.00,3030.1669866,N,11425.7514332,E,5,06,1.0,47.158,M,-13.676,M,0.0,0000*41
$GPGSA,A,3,05,06,11,13,15,20,29,,,,,,2.4,1.1,2.2,1*25
$GPGSV,2,1,07,05,59,301,45,06,25,098,42,11,56,064,46,13,45,169,45,0*62
$GPGSV,2,2,07,15,25,206,42,20,59,008,44,29,30,316,45,,,,,0*58
$GNRMC,082534.00,A,3030.1669791,N,11425.7514314,E,0.06,0.00,200524,0.0,E,R,V*48
$GNGGA,082534.00,3030.1669791,N,11425.7514314,E,5,06,1.0,47.156,M,-13.676,M,-1.0,0000*67
$GPGSA,A,3,05,06,11,13,15,20,29,,,,,,2.4,1.1,2.2,1*25
$GPGSV,2,1,07,05,59,301,45,06,25,098,41,11,56,064,45,13,45,169,45,0*62
$GPGSV,2,2,07,15,25,206,42,20,59,008,44,29,30,316,44,,,,,0*59
$GNRMC,082535.00,A,3030.1669819,N,11425.7514332,E,0.08,0.00,200524,0.0,E,R,V*4C
$GNGGA,082535.00,3030.1669819,N,11425.7514332,E,5,06,1.0,47.146,M,-13.676,M,0.0,0000*40
$GPGSA,A,3,05,06,11,13,15,20,29,,,,,,2.4,1.1,2.2,1*25
$GPGSV,2,1,07,05,59,301,45,06,25,098,41,11,56,064,46,13,45,169,45,0*61
$GPGSV,2,2,07,15,25,206,42,20,59,008,44,29,30,316,44,,,,,0*59
$GNRMC,082536.00,A,3030.1669642,N,11425.7514277,E,0.03,0.00,200524,0.0,E,R,V*44
$GNGGA,082536.00,3030.1669642,N,11425.7514277,E,5,06,1.0,47.161,M,-13.676,M,0.0,0000*46
$GPGSA,A,3,05,06,11,13,15,20,29,,,,,,2.4,1.1,2.2,1*25
$GPGSV,2,1,07,05,59,301,45,06,25,098,41,11,56,064,46,13,45,169,45,0*61
$GPGSV,2,2,07,15,25,206,42,20,59,008,44,29,30,316,45,,,,,0*58
$GNRMC,082537.00,A,3030.1669683,N,11425.7514329,E,0.18,0.00,200524,0.0,E,R,V*48
$GNGGA,082537.00,3030.1669683,N,11425.7514329,E,5,06,1.0,47.157,M,-13.676,M,1.0,0000*44
$GPGSA,A,3,05,06,11,13,15,20,29,,,,,,2.4,1.1,2.2,1*25
$GPGSV,2,1,07,05,59,301,45,06,25,098,42,11,56,064,47,13,45,169,45,0*63
$GPGSV,2,2,07,15,25,206,42,20,59,008,44,29,30,316,44,,,,,0*59
$GNRMC,082538.00,A,3030.1669659,N,11425.7514329,E,0.08,0.00,200524,0.0,E,R,V*41
$GNGGA,082538.00,3030.1669659,N,11425.7514329,E,5,06,1.0,47.167,M,-13.676,M,0.0,0000*4E
$GPGSA,A,3,05,06,11,13,15,20,29,,,,,,2.4,1.1,2.2,1*25
$GPGSV,2,1,07,05,59,301,46,06,25,098,42,11,56,064,47,13,45,169,45,0*60
$GPGSV,2,2,07,15,25,206,42,20,59,008,44,29,30,316,45,,,,,0*58
$GNRMC,082539.00,A,3030.1669626,N,11425.7514323,E,0.11,0.00,200524,0.0,E,R,V*4A
$GNGGA,082539.00,3030.1669626,N,11425.7514323,E,5,06,1.0,47.184,M,-13.676,M,-1.0,0000*6C
$GPGSA,A,3,05,06,11,13,15,20,29,,,,,,2.4,1.1,2.2,1*25
$GPGSV,2,1,07,05,59,302,46,06,25,098,41,11,56,064,46,13,45,169,45,0*61
$GPGSV,2,2,07,15,25,206,42,20,59,008,44,29,30,316,44,,,,,0*59
$GNRMC,082540.00,A,3030.1669631,N,11425.7514359,E,0.10,0.00,200524,0.0,E,R,V*4E
$GNGGA,082540.00,3030.1669631,N,11425.7514359,E,5,06,1.0,47.181,M,-13.676,M,0.0,0000*40
$GPGSA,A,3,05,06,11,13,15,20,29,,,,,,2.4,1.1,2.2,1*25
$GPGSV,2,1,07,05,59,302,46,06,25,098,41,11,56,064,46,13,45,169,45,0*61
$GPGSV,2,2,07,15,25,206,42,20,59,008,44,29,30,316,44,,,,,0*59
$GNRMC,082541.00,A,3030.1669390,N,11425.7514312,E,0.06,0.00,200524,0.0,E,R,V*49
$GNGGA,082541.00,3030.1669390,N,11425.7514312,E,5,06,1.0,47.220,M,-13.676,M,-1.0,0000*64
$GPGSA,A,3,05,06,11,13,15,20,29,,,,,,2.4,1.1,2.2,1*25
$GPGSV,2,1,07,05,59,302,46,06,25,098,41,11,56,064,46,13,45,169,45,0*61
$GPGSV,2,2,07,15,25,206,42,20,59,008,45,29,30,316,44,,,,,0*58
$GNRMC,082542.00,A,3030.1669406,N,11425.7514354,E,0.06,0.00,200524,0.0,E,R,V*40
$GNGGA,082542.00,3030.1669406,N,11425.7514354,E,5,06,1.0,47.237,M,-13.676,M,0.0,0000*47
$GPGSA,A,3,05,06,11,13,15,20,29,,,,,,2.4,1.1,2.2,1*25
$GPGSV,2,1,07,05,59,302,45,06,25,098,42,11,56,064,47,13,45,169,45,0*60
$GPGSV,2,2,07,15,25,206,42,20,59,008,44,29,30,316,44,,,,,0*59
$GNRMC,082543.00,A,3030.1669763,N,11425.7514458,E,0.17,0.00,200524,0.0,E,R,V*4A
$GNGGA,082543.00,3030.1669763,N,11425.7514458,E,5,06,1.0,47.238,M,-13.676,M,0.0,0000*42
$GPGSA,A,3,05,06,11,13,20,29,,,,,,,2.8,1.4,2.4,1*2E
$GPGSV,2,1,06,05,59,302,45,06,25,098,42,11,56,064,45,13,45,169,45,0*63
$GPGSV,2,2,06,20,59,008,44,29,30,316,44,,,,,,,,,0*69
$GNRMC,082544.00,A,3030.1669789,N,11425.7514477,E,0.05,0.00,200524,0.0,E,R,V*47
$GNGGA,082544.00,3030.1669789,N,11425.7514477,E,5,06,1.0,47.226,M,-13.676,M,1.0,0000*42
$GPGSA,A,3,05,06,11,13,20,29,,,,,,,2.8,1.4,2.4,1*2E
$GPGSV,2,1,06,05,59,302,45,06,25,098,42,11,56,064,45,13,45,169,46,0*60
$GPGSV,2,2,06,20,59,008,44,29,30,316,44,,,,,,,,,0*69
$GNRMC,082545.00,A,3030.1669777,N,11425.7514475,E,0.08,0.00,200524,0.0,E,R,V*48
$GNGGA,082545.00,3030.1669777,N,11425.7514475,E,5,06,1.0,47.234,M,-13.676,M,0.0,0000*42
$GPGSA,A,3,05,06,11,13,20,29,,,,,,,2.8,1.4,2.4,1*2E
$GPGSV,2,1,06,05,59,302,45,06,25,098,42,11,56,064,45,13,46,169,46,0*63
$GPGSV,2,2,06,20,59,008,44,29,30,316,44,,,,,,,,,0*69
$GNRMC,082546.00,A,3030.1669841,N,11425.7514500,E,0.07,0.00,200524,0.0,E,R,V*4D
$GNGGA,082546.00,3030.1669841,N,11425.7514500,E,5,06,1.0,47.219,M,-13.676,M,1.0,0000*46
$GPGSA,A,3,05,06,11,13,20,29,,,,,,,2.8,1.4,2.4,1*2E
$GPGSV,2,1,06,05,59,302,45,06,25,098,41,11,56,064,45,13,46,169,45,0*63
$GPGSV,2,2,06,20,59,008,44,29,30,316,44,,,,,,,,,0*69
$GNRMC,082547.00,A,3030.1669800,N,11425.7514460,E,0.09,0.00,200524,0.0,E,R,V*40
$GNGGA,082547.00,3030.1669800,N,11425.7514460,E,5,06,1.0,47.232,M,-13.676,M,-1.0,0000*61
$GPGSA,A,3,05,06,11,13,20,29,,,,,,,2.8,1.4,2.4,1*2E
$GPGSV,2,1,06,05,59,302,45,06,25,098,41,11,56,064,45,13,46,169,46,0*60
$GPGSV,2,2,06,20,59,008,45,29,30,316,44,,,,,,,,,0*68
$GNRMC,082548.00,A,3030.1669838,N,11425.7514495,E,0.08,0.00,200524,0.0,E,R,V*4F
$GNGGA,082548.00,3030.1669838,N,11425.7514495,E,5,06,1.0,47.218,M,-13.676,M,0.0,0000*4B
$GPGSA,A,3,05,06,11,13,20,29,,,,,,,2.8,1.4,2.4,1*2E
$GPGSV,2,1,06,05,59,302,45,06,25,098,41,11,56,064,46,13,46,169,46,0*63
$GPGSV,2,2,06,20,59,008,44,29,30,316,44,,,,,,,,,0*69
$GNRMC,082549.00,A,3030.1669901,N,11425.7514518,E,0.08,0.00,200524,0.0,E,R,V*41
$GNGGA,082549.00,3030.1669901,N,11425.7514518,E,5,06,1.0,47.206,M,-13.676,M,0.0,0000*4A
$GPGSA,A,3,05,06,11,13,20,29,,,,,,,2.8,1.4,2.4,1*2E
$GPGSV,2,1,06,05,59,302,45,06,25,098,41,11,56,064,46,13,46,169,46,0*63
$GPGSV,2,2,06,20,59,008,44,29,30,316,44,,,,,,,,,0*69
$GNRMC,082550.00,A,3030.1669948,N,11425.7514541,E,0.10,0.00,200524,0.0,E,R,V*41
$GNGGA,082550.00,3030.1669948,N,11425.7514541,E,5,06,1.0,47.189,M,-13.676,M,1.0,0000*46
$GPGSA,A,3,05,06,11,13,20,29,,,,,,,2.8,1.4,2.4,1*2E
$GPGSV,2,1,06,05,59,302,45,06,25,098,42,11,56,064,46,13,46,169,45,0*63
$GPGSV,2,2,06,20,59,008,44,29,30,316,44,,,,,,,,,0*69
$GNRMC,082551.00,A,3030.1669938,N,11425.7514531,E,0.08,0.00,200524,0.0,E,R,V*49
$GNGGA,082551.00,3030.1669938,N,11425.7514531,E,5,06,1.0,47.190,M,-13.676,M,0.0,0000*4E
$GPGSA,A,3,05,06,11,13,20,29,,,,,,,2.8,1.4,2.4,1*2E
$GPGSV,2,1,06,05,59,302,45,06,25,098,42,11,56,064,46,13,46,169,45,0*63
$GPGSV,2,2,06,20,59,008,44,29,30,316,44,,,,,,,,,0*69
$GNRMC,082552.00,A,3030.1669906,N,11425.7514497,E,0.04,0.00,200524,0.0,E,R,V*46
$GNGGA,082552.00,3030.1669906,N,11425.7514497,E,5,06,1.0,47.199,M,-13.676,M,-1.0,0000*68
$GPGSA,A,3,05,06,11,13,20,29,,,,,,,2.8,1.4,2.4,1*2E
$GPGSV,2,1,06,05,59,302,45,06,25,098,42,11,56,064,45,13,46,169,46,0*63
$GPGSV,2,2,06,20,59,008,44,29,30,316,44,,,,,,,,,0*69
$GNRMC,082553.00,A,3030.1669924,N,11425.7514509,E,0.07,0.00,200524,0.0,E,R,V*42
$GNGGA,082553.00,3030.1669924,N,11425.7514509,E,5,06,1.0,47.202,M,-13.676,M,-1.0,0000*6E
$GPGSA,A,3,05,06,11,13,20,29,,,,,,,2.8,1.4,2.4,1*2E
$GPGSV,2,1,06,05,59,302,45,06,25,098,41,11,56,064,46,13,46,169,45,0*60
$GPGSV,2,2,06,20,59,008,44,29,30,316,44,,,,,,,,,0*69
$GNRMC,082554.00,A,3030.1669938,N,11425.7514505,E,0.29,0.00,200524,0.0,E,R,V*48
$GNGGA,082554.00,3030.1669938,N,11425.7514505,E,5,06,1.0,47.218,M,-13.676,M,-1.0,0000*63
$GPGSA,A,3,05,06,11,13,20,29,,,,,,,2.8,1.4,2.4,1*2E
$GPGSV,2,1,06,05,59,302,45,06,25,098,41,11,56,064,46,13,46,169,45,0*60
$GPGSV,2,2,06,20,59,008,44,29,30,316,45,,,,,,,,,0*68
$GNRMC,082555.00,A,3030.1669952,N,11425.7514514,E,0.26,0.00,200524,0.0,E,R,V*4A
$GNGGA,082555.00,3030.1669952,N,11425.7514514,E,5,06,1.0,47.198,M,-13.676,M,-1.0,0000*65
$GPGSA,A,3,05,06,11,13,20,29,,,,,,,2.8,1.4,2.4,1*2E
$GPGSV,2,1,06,05,59,302,45,06,25,098,41,11,56,064,46,13,46,169,45,0*60
$GPGSV,2,2,06,20,59,008,44,29,30,316,45,,,,,,,,,0*68
$GNRMC,082556.00,A,3030.1669970,N,11425.7514534,E,0.09,0.00,200524,0.0,E,R,V*46
$GNGGA,082556.00,3030.1669970,N,11425.7514534,E,5,06,1.0,47.187,M,-13.676,M,-1.0,0000*6A
$GPGSA,A,3,05,06,11,13,20,29,,,,,,,2.8,1.4,2.4,1*2E
$GPGSV,2,1,06,05,59,302,45,06,25,098,41,11,56,064,46,13,46,169,45,0*60
$GPGSV,2,2,06,20,59,008,44,29,30,316,44,,,,,,,,,0*69
$GNRMC,082557.00,A,3030.1669971,N,11425.7514533,E,0.13,0.00,200524,0.0,E,R,V*4A
$GNGGA,082557.00,3030.1669971,N,11425.7514533,E,5,06,1.0,47.178,M,-13.676,M,0.0,0000*41
$GPGSA,A,3,05,06,11,13,20,29,,,,,,,2.8,1.4,2.4,1*2E
$GPGSV,2,1,06,05,59,302,45,06,25,098,41,11,56,064,46,13,46,169,45,0*60
$GPGSV,2,2,06,20,59,008,44,29,30,316,44,,,,,,,,,0*69
$GNRMC,082558.00,A,3030.1669971,N,11425.7514506,E,0.09,0.00,200524,0.0,E,R,V*48
$GNGGA,082558.00,3030.1669971,N,11425.7514506,E,5,06,1.0,47.206,M,-13.676,M,-1.0,0000*6E
$GPGSA,A,3,05,06,11,13,20,29,,,,,,,2.8,1.4,2.4,1*2E
$GPGSV,2,1,06,05,59,302,45,06,25,098,41,11,56,064,46,13,46,169,45,0*60
$GPGSV,2,2,06,20,59,008,44,29,30,316,44,,,,,,,,,0*69
$GNRMC,082559.00,A,3030.1669986,N,11425.7514532,E,0.12,0.00,200524,0.0,E,R,V*4C
$GNGGA,082559.00,3030.1669986,N,11425.7514532,E,5,06,1.0,47.193,M,-13.676,M,0.0,0000*43
$GPGSA,A,3,05,06,11,13,20,29,,,,,,,2.8,1.4,2.4,1*2E
$GPGSV,2,1,06,05,59,302,45,06,25,098,41,11,56,064,46,13,46,169,45,0*60
$GPGSV,2,2,06,20,59,008,44,29,30,316,44,,,,,,,,,0*69
$GNRMC,082600.00,A,3030.1670033,N,11425.7514551,E,0.12,0.00,200524,0.0,E,R,V*49
$GNGGA,082600.00,3030.1670033,N,11425.7514551,E,5,06,1.0,47.196,M,-13.676,M,0.0,0000*43
$GPGSA,A,3,05,06,11,13,20,29,,,,,,,2.8,1.4,2.4,1*2E
$GPGSV,2,1,06,05,59,302,45,06,25,098,41,11,56,064,45,13,46,169,45,0*63
$GPGSV,2,2,06,20,59,008,44,29,30,316,44,,,,,,,,,0*69
$GNRMC,082601.00,A,3030.1670067,N,11425.7514585,E,0.05,0.00,200524,0.0,E,R,V*46
$GNGGA,082601.00,3030.1670067,N,11425.7514585,E,5,06,1.0,47.189,M,-13.676,M,1.0,0000*45
$GPGSA,A,3,05,06,11,13,20,29,,,,,,,2.8,1.4,2.4,1*2E
$GPGSV,2,1,06,05,59,302,45,06,25,098,41,11,56,064,46,13,46,169,45,0*60
$GPGSV,2,2,06,20,59,008,44,29,30,316,44,,,,,,,,,0*69
$GNRMC,082602.00,A,3030.1670063,N,11425.7514592,E,0.13,0.00,200524,0.0,E,R,V*40
$GNGGA,082602.00,3030.1670063,N,11425.7514592,E,5,06,1.0,47.176,M,-13.676,M,0.0,0000*45
$GPGSA,A,3,05,06,11,13,20,29,,,,,,,2.8,1.4,2.4,1*2E
$GPGSV,2,1,06,05,59,302,45,06,25,098,41,11,56,064,46,13,46,169,45,0*60
$GPGSV,2,2,06,20,59,008,44,29,30,316,44,,,,,,,,,0*69
$GNRMC,082603.00,A,3030.1670131,N,11425.7514629,E,0.12,0.00,200524,0.0,E,R,V*45
$GNGGA,082603.00,3030.1670131,N,11425.7514629,E,5,06,1.0,47.168,M,-13.676,M,1.0,0000*4F
$GPGSA,A,3,05,06,11,13,20,29,,,,,,,2.8,1.4,2.4,1*2E
$GPGSV,2,1,06,05,59,302,45,06,25,098,41,11,56,064,45,13,46,169,45,0*63
$GPGSV,2,2,06,20,59,009,44,29,30,316,44,,,,,,,,,0*68
$GNRMC,082604.00,A,3030.1670107,N,11425.7514601,E,0.16,0.00,200524,0.0,E,R,V*49
$GNGGA,082604.00,3030.1670107,N,11425.7514601,E,5,06,1.0,47.168,M,-13.676,M,0.0,0000*46
$GPGSA,A,3,05,06,11,13,20,29,,,,,,,2.8,1.4,2.4,1*2E
$GPGSV,2,1,06,05,59,302,45,06,25,098,41,11,56,064,45,13,46,169,45,0*63
$GPGSV,2,2,06,20,59,009,43,29,30,316,44,,,,,,,,,0*6F
$GNRMC,082605.00,A,3030.1670066,N,11425.7514586,E,0.06,0.00,200524,0.0,E,R,V*43
$GNGGA,082605.00,3030.1670066,N,11425.7514586,E,5,06,1.0,47.175,M,-13.676,M,-1.0,0000*6D
$GPGSA,A,3,05,06,11,13,20,29,,,,,,,2.8,1.4,2.4,1*2E
$GPGSV,2,1,06,05,59,302,45,06,25,098,41,11,56,064,45,13,46,169,45,0*63
$GPGSV,2,2,06,20,59,009,44,29,30,316,44,,,,,,,,,0*68
$GNRMC,082606.00,A,3030.1670081,N,11425.7514599,E,0.08,0.00,200524,0.0,E,R,V*49
$GNGGA,082606.00,3030.1670081,N,11425.7514599,E,5,06,1.0,47.177,M,-13.676,M,-1.0,0000*6B
$GPGSA,A,3,05,06,11,13,20,29,,,,,,,2.8,1.4,2.4,1*2E
$GPGSV,2,1,06,05,59,302,45,06,25,098,41,11,56,064,45,13,46,169,45,0*63
$GPGSV,2,2,06,20,59,009,44,29,30,316,44,,,,,,,,,0*68
$GNRMC,082607.00,A,3030.1670091,N,11425.7514595,E,0.05,0.00,200524,0.0,E,R,V*48
$GNGGA,082607.00,3030.1670091,N,11425.7514595,E,5,06,1.0,47.188,M,-13.676,M,-1.0,0000*67
$GPGSA,A,3,05,06,11,13,20,29,,,,,,,2.8,1.4,2.4,1*2E
$GPGSV,2,1,06,05,59,302,45,06,25,098,42,11,56,064,45,13,46,169,45,0*60
$GPGSV,2,2,06,20,59,009,44,29,30,316,45,,,,,,,,,0*69
$GNRMC,082608.00,A,3030.1670065,N,11425.7514580,E,0.06,0.00,200524,0.0,E,R,V*4B
$GNGGA,082608.00,3030.1670065,N,11425.7514580,E,5,06,1.0,47.202,M,-13.676,M,-1.0,0000*66
$GPGSA,A,3,05,06,11,13,20,29,,,,,,,2.8,1.4,2.4,1*2E
$GPGSV,2,1,06,05,59,302,45,06,25,098,41,11,56,064,44,13,46,169,43,0*64
$GPGSV,2,2,06,20,59,009,44,29,30,316,44,,,,,,,,,0*68
$GNRMC,082609.00,A,3030.1670066,N,11425.7514588,E,0.05,0.00,200524,0.0,E,R,V*42
$GNGGA,082609.00,3030.1670066,N,11425.7514588,E,5,06,1.0,47.194,M,-13.676,M,-1.0,0000*60
$GPGSA,A,3,05,06,11,13,20,29,,,,,,,2.8,1.4,2.4,1*2E
$GPGSV,2,1,06,05,59,302,44,06,25,098,42,11,56,064,45,13,46,169,45,0*61
$GPGSV,2,2,06,20,59,009,44,29,30,316,44,,,,,,,,,0*68
$GNRMC,082610.00,A,3030.1670050,N,11425.7514584,E,0.13,0.00,200524,0.0,E,R,V*44
$GNGGA,082610.00,3030.1670050,N,11425.7514584,E,5,06,1.0,47.199,M,-13.676,M,-1.0,0000*6C
$GPGSA,A,3,05,06,11,13,20,29,,,,,,,2.8,1.4,2.4,1*2E
$GPGSV,2,1,06,05,59,302,44,06,25,098,41,11,56,064,45,13,46,169,45,0*62
$GPGSV,2,2,06,20,59,009,44,29,30,316,44,,,,,,,,,0*68
$GNRMC,082611.00,A,3030.1670046,N,11425.7514582,E,0.04,0.00,200524,0.0,E,R,V*42
$GNGGA,082611.00,3030.1670046,N,11425.7514582,E,5,06,1.0,47.198,M,-13.676,M,0.0,0000*41
$GPGSA,A,3,05,06,11,13,20,29,,,,,,,2.8,1.4,2.4,1*2E
$GPGSV,2,1,06,05,59,302,45,06,25,098,41,11,56,064,46,13,46,169,45,0*60
$GPGSV,2,2,06,20,59,009,44,29,30,316,45,,,,,,,,,0*69
$GNRMC,082612.00,A,3030.1670038,N,11425.7514594,E,0.04,0.00,200524,0.0,E,R,V*4F
$GNGGA,082612.00,3030.1670038,N,11425.7514594,E,5,06,1.0,47.191,M,-13.676,M,0.0,0000*45
$GPGSA,A,3,05,06,11,13,20,29,,,,,,,2.8,1.4,2.4,1*2E
$GPGSV,2,1,06,05,59,302,45,06,25,099,41,11,56,064,45,13,46,169,45,0*62
$GPGSV,2,2,06,20,59,009,45,29,30,316,45,,,,,,,,,0*68
$GNRMC,082613.00,A,3030.1670044,N,11425.7514626,E,0.05,0.00,200524,0.0,E,R,V*4E
$GNGGA,082613.00,3030.1670044,N,11425.7514626,E,5,06,1.0,47.179,M,-13.676,M,1.0,0000*42
$GPGSA,A,3,05,06,11,13,20,29,,,,,,,2.8,1.4,2.4,1*2E
$GPGSV,2,1,06,05,59,302,45,06,25,099,41,11,56,064,45,13,46,169,45,0*62
$GPGSV,2,2,06,20,59,009,44,29,30,316,44,,,,,,,,,0*68
$GNRMC,082614.00,A,3030.1670009,N,11425.7514591,E,0.28,0.00,200524,0.0,E,R,V*40
$GNGGA,082614.00,3030.1670009,N,11425.7514591,E,5,06,1.0,47.182,M,-13.676,M,0.0,0000*46
$GPGSA,A,3,05,06,11,13,20,29,,,,,,,2.8,1.4,2.4,1*2E
$GPGSV,2,1,06,05,59,302,45,06,25,099,42,11,56,064,46,13,46,169,46,0*61
$GPGSV,2,2,06,20,59,009,44,29,30,316,45,,,,,,,,,0*69
$GNRMC,082615.00,A,3030.1670000,N,11425.7514608,E,0.08,0.00,200524,0.0,E,R,V*49
$GNGGA,082615.00,3030.1670000,N,11425.7514608,E,5,06,1.0,47.175,M,-13.676,M,0.0,0000*45
$GPGSA,A,3,05,06,11,13,20,29,,,,,,,2.8,1.4,2.4,1*2E
$GPGSV,2,1,06,05,59,302,45,06,25,099,42,11,56,064,46,13,46,169,45,0*62
$GPGSV,2,2,06,20,59,009,44,29,30,315,45,,,,,,,,,0*6A
$GNRMC,082616.00,A,3030.1669980,N,11425.7514596,E,0.04,0.00,200524,0.0,E,R,V*4B
$GNGGA,082616.00,3030.1669980,N,11425.7514596,E,5,06,1.0,47.176,M,-13.676,M,0.0,0000*48
$GPGSA,A,3,05,06,11,13,20,29,,,,,,,2.8,1.4,2.4,1*2E
$GPGSV,2,1,06,05,59,302,45,06,25,099,41,11,56,064,46,13,46,169,45,0*61
$GPGSV,2,2,06,20,59,009,44,29,30,315,45,,,,,,,,,0*6A
$GNRMC,082617.00,A,3030.1669955,N,11425.7514597,E,0.09,0.00,200524,0.0,E,R,V*4E
$GNGGA,082617.00,3030.1669955,N,11425.7514597,E,5,06,1.0,47.173,M,-13.676,M,0.0,0000*45
$GPGSA,A,3,05,06,11,13,20,29,,,,,,,2.8,1.4,2.4,1*2E
$GPGSV,2,1,06,05,59,302,45,06,25,099,41,11,56,064,45,13,46,169,45,0*62
$GPGSV,2,2,06,20,59,009,44,29,30,315,45,,,,,,,,,0*6A
$GNRMC,082618.00,A,3030.1669954,N,11425.7514580,E,0.06,0.00,200524,0.0,E,R,V*49
$GNGGA,082618.00,3030.1669954,N,11425.7514580,E,5,06,1.0,47.174,M,-13.676,M,0.0,0000*4A
$GPGSA,A,3,05,06,11,13,20,29,,,,,,,2.8,1.4,2.4,1*2E
$GPGSV,2,1,06,05,59,302,45,06,25,099,41,11,56,064,45,13,46,169,46,0*61
$GPGSV,2,2,06,20,59,009,44,29,30,315,45,,,,,,,,,0*6A
$GNRMC,082619.00,A,3030.1669916,N,11425.7514583,E,0.15,0.00,200524,0.0,E,R,V*4F
$GNGGA,082619.00,3030.1669916,N,11425.7514583,E,5,06,1.0,47.179,M,-13.676,M,0.0,0000*43
$GPGSA,A,3,05,06,11,13,20,29,,,,,,,2.8,1.4,2.4,1*2E
$GPGSV,2,1,06,05,59,302,45,06,25,099,41,11,56,064,45,13,46,169,45,0*62
$GPGSV,2,2,06,20,59,009,44,29,30,315,45,,,,,,,,,0*6A
$GNRMC,082620.00,A,3030.1669891,N,11425.7514577,E,0.11,0.00,200524,0.0,E,R,V*44
$GNGGA,082620.00,3030.1669891,N,11425.7514577,E,5,06,1.0,47.182,M,-13.676,M,0.0,0000*48
$GPGSA,A,3,05,06,11,13,20,29,,,,,,,2.8,1.4,2.4,1*2E
$GPGSV,2,1,06,05,59,302,45,06,25,099,41,11,56,065,46,13,46,169,45,0*60
$GPGSV,2,2,06,20,59,009,44,29,30,315,45,,,,,,,,,0*6A
$GNRMC,082621.00,A,3030.1669889,N,11425.7514557,E,0.08,0.00,200524,0.0,E,R,V*46
$GNGGA,082621.00,3030.1669889,N,11425.7514557,E,5,06,1.0,47.174,M,-13.676,M,-1.0,0000*67
$GPGSA,A,3,05,06,11,13,20,29,,,,,,,2.8,1.4,2.4,1*2E
$GPGSV,2,1,06,05,59,302,45,06,25,099,41,11,56,065,45,13,46,169,45,0*63
$GPGSV,2,2,06,20,59,009,45,29,30,315,45,,,,,,,,,0*6B
$GNRMC,082622.00,A,3030.1669869,N,11425.7514555,E,0.06,0.00,200524,0.0,E,R,V*47
$GNGGA,082622.00,3030.1669869,N,11425.7514555,E,5,06,1.0,47.191,M,-13.676,M,-1.0,0000*63
$GPGSA,A,3,05,06,11,13,20,29,,,,,,,2.8,1.4,2.4,1*2E
$GPGSV,2,1,06,05,59,302,45,06,25,099,41,11,56,065,46,13,46,169,45,0*60
$GPGSV,2,2,06,20,59,009,44,29,30,315,45,,,,,,,,,0*6A
$GNRMC,082623.00,A,3030.1669849,N,11425.7514535,E,0.09,0.00,200524,0.0,E,R,V*4D
$GNGGA,082623.00,3030.1669849,N,11425.7514535,E,5,06,1.0,47.204,M,-13.676,M,-1.0,0000*69
$GPGSA,A,3,05,06,11,13,20,29,,,,,,,2.8,1.4,2.4,1*2E
$GPGSV,2,1,06,05,59,302,46,06,25,099,41,11,56,065,45,13,46,169,46,0*63
$GPGSV,2,2,06,20,59,009,44,29,30,315,45,,,,,,,,,0*6A
$GNRMC,082624.00,A,3030.1669838,N,11425.7514532,E,0.08,0.00,200524,0.0,E,R,V*4A
$GNGGA,082624.00,3030.1669838,N,11425.7514532,E,5,06,1.0,47.199,M,-13.676,M,-1.0,0000*68
$GPGSA,A,3,05,06,11,13,20,29,,,,,,,2.8,1.4,2.4,1*2E
$GPGSV,2,1,06,05,59,302,45,06,25,099,42,11,56,065,46,13,46,169,45,0*63
$GPGSV,2,2,06,20,59,009,44,29,30,315,45,,,,,,,,,0*6A
$GNRMC,082625.00,A,3030.1669841,N,11425.7514522,E,0.05,0.00,200524,0.0,E,R,V*49
$GNGGA,082625.00,3030.1669841,N,11425.7514522,E,5,06,1.0,47.213,M,-13.676,M,-1.0,0000*67
$GPGSA,A,3,05,06,11,13,20,29,,,,,,,2.8,1.4,2.4,1*2E
$GPGSV,2,1,06,05,59,302,45,06,25,099,41,11,56,065,45,13,46,169,46,0*60
$GPGSV,2,2,06,20,59,009,44,29,30,315,45,,,,,,,,,0*6A
$GNRMC,082626.00,A,3030.1669853,N,11425.7514533,E,0.24,0.00,200524,0.0,E,R,V*4A
$GNGGA,082626.00,3030.1669853,N,11425.7514533,E,5,06,1.0,47.213,M,-13.676,M,-1.0,0000*67
$GPGSA,A,3,05,06,11,13,20,29,,,,,,,2.8,1.4,2.4,1*2E
$GPGSV,2,1,06,05,59,302,45,06,25,099,41,11,56,065,46,13,46,169,45,0*60
$GPGSV,2,2,06,20,59,009,44,29,30,315,45,,,,,,,,,0*6A
$GNRMC,082627.00,A,3030.1669846,N,11425.7514503,E,0.17,0.00,200524,0.0,E,R,V*4C
$GNGGA,082627.00,3030.1669846,N,11425.7514503,E,5,06,1.0,47.207,M,-13.676,M,-1.0,0000*64
$GPGSA,A,3,05,06,11,13,20,29,,,,,,,2.8,1.4,2.4,1*2E
$GPGSV,2,1,06,05,59,302,45,06,25,099,41,11,56,065,46,13,46,169,45,0*60
$GPGSV,2,2,06,20,59,009,45,29,30,315,45,,,,,,,,,0*6B
$GNRMC,082628.00,A,3030.1669854,N,11425.7514519,E,0.07,0.00,200524,0.0,E,R,V*4A
$GNGGA,082628.00,3030.1669854,N,11425.7514519,E,5,06,1.0,47.218,M,-13.676,M,-1.0,0000*6D
$GPGSA,A,3,05,06,11,13,20,29,,,,,,,2.8,1.4,2.4,1*2E
$GPGSV,2,1,06,05,59,302,45,06,25,099,42,11,56,065,45,13,46,169,46,0*63
$GPGSV,2,2,06,20,59,009,44,29,30,315,45,,,,,,,,,0*6A
$GNRMC,082629.00,A,3030.1669856,N,11425.7514505,E,0.14,0.00,200524,0.0,E,R,V*46
$GNGGA,082629.00,3030.1669856,N,11425.7514505,E,5,06,1.0,47.224,M,-13.676,M,-1.0,0000*6C
$GPGSA,A,3,05,06,11,13,20,29,,,,,,,2.8,1.4,2.4,1*2E
$GPGSV,2,1,06,05,59,302,45,06,25,099,42,11,56,065,45,13,46,169,45,0*60
$GPGSV,2,2,06,20,59,009,44,29,30,315,45,,,,,,,,,0*6A
$GNRMC,082630.00,A,3030.1669864,N,11425.7514485,E,0.07,0.00,200524,0.0,E,R,V*44
$GNGGA,082630.00,3030.1669864,N,11425.7514485,E,5,06,1.0,47.222,M,-13.676,M,-1.0,0000*6A
$GPGSA,A,3,05,06,11,13,20,29,,,,,,,2.8,1.4,2.4,1*2E
$GPGSV,2,1,06,05,59,302,45,06,25,099,41,11,56,065,45,13,46,169,45,0*63
$GPGSV,2,2,06,20,59,009,44,29,30,315,45,,,,,,,,,0*6A
$GNRMC,082631.00,A,3030.1669848,N,11425.7514467,E,0.05,0.00,200524,0.0,E,R,V*45
$GNGGA,082631.00,3030.1669848,N,11425.7514467,E,5,06,1.0,47.226,M,-13.676,M,-1.0,0000*6D
$GPGSA,A,3,05,06,11,13,20,29,,,,,,,2.8,1.4,2.4,1*2E
$GPGSV,2,1,06,05,59,302,45,06,25,099,41,11,56,065,45,13,46,169,46,0*60
$GPGSV,2,2,06,20,59,009,44,29,30,315,45,,,,,,,,,0*6A
$GNRMC,082632.00,A,3030.1669894,N,11425.7514499,E,0.12,0.00,200524,0.0,E,R,V*40
$GNGGA,082632.00,3030.1669894,N,11425.7514499,E,5,06,1.0,47.213,M,-13.676,M,0.0,0000*44
$GPGSA,A,3,05,06,11,13,20,29,,,,,,,2.8,1.4,2.4,1*2E
$GPGSV,2,1,06,05,59,302,45,06,25,099,41,11,56,065,45,13,46,169,45,0*63
$GPGSV,2,2,06,20,59,009,44,29,30,315,45,,,,,,,,,0*6A
$GNRMC,082633.00,A,3030.1669876,N,11425.7514463,E,0.11,0.00,200524,0.0,E,R,V*4B
$GNGGA,082633.00,3030.1669876,N,11425.7514463,E,5,06,1.0,47.215,M,-13.676,M,0.0,0000*4A
$GPGSA,A,3,05,06,11,13,20,29,,,,,,,2.8,1.4,2.4,1*2E
$GPGSV,2,1,06,05,59,302,45,06,25,099,41,11,56,065,46,13,46,169,45,0*60
$GPGSV,2,2,06,20,59,009,44,29,30,315,45,,,,,,,,,0*6A
$GNRMC,082634.00,A,3030.1669866,N,11425.7514459,E,0.11,0.00,200524,0.0,E,R,V*44
$GNGGA,082634.00,3030.1669866,N,11425.7514459,E,5,06,1.0,47.219,M,-13.676,M,0.0,0000*49
$GPGSA,A,3,05,06,11,13,20,29,,,,,,,2.8,1.4,2.4,1*2E
$GPGSV,2,1,06,05,59,302,45,06,25,099,41,11,56,065,46,13,46,169,45,0*60
$GPGSV,2,2,06,20,59,009,45,29,30,315,45,,,,,,,,,0*6B
$GNRMC,082635.00,A,3030.1669882,N,11425.7514455,E,0.07,0.00,200524,0.0,E,R,V*44
$GNGGA,082635.00,3030.1669882,N,11425.7514455,E,5,06,1.0,47.204,M,-13.676,M,0.0,0000*42
$GPGSA,A,3,05,06,11,13,20,29,,,,,,,2.8,1.4,2.4,1*2E
$GPGSV,2,1,06,05,59,302,45,06,25,099,41,11,56,065,45,13,46,169,46,0*60
$GPGSV,2,2,06,20,59,009,45,29,30,315,45,,,,,,,,,0*6B
$GNRMC,082636.00,A,3030.1669907,N,11425.7514460,E,0.15,0.00,200524,0.0,E,R,V*4E
$GNGGA,082636.00,3030.1669907,N,11425.7514460,E,5,06,1.0,47.219,M,-13.676,M,0.0,0000*47
$GPGSA,A,3,05,06,11,13,20,29,,,,,,,2.8,1.4,2.4,1*2E
$GPGSV,2,1,06,05,59,302,45,06,25,099,41,11,56,065,45,13,46,169,45,0*63
$GPGSV,2,2,06,20,59,009,44,29,30,315,45,,,,,,,,,0*6A
$GNRMC,082637.00,A,3030.1669889,N,11425.7514463,E,0.07,0.00,200524,0.0,E,R,V*48
$GNGGA,082637.00,3030.1669889,N,11425.7514463,E,5,06,1.0,47.213,M,-13.676,M,0.0,0000*48
$GPGSA,A,3,05,06,11,13,20,29,,,,,,,2.8,1.4,2.4,1*2E
$GPGSV,2,1,06,05,59,302,46,06,25,099,41,11,56,065,45,13,46,169,45,0*60
$GPGSV,2,2,06,20,59,009,44,29,30,315,45,,,,,,,,,0*6A
$GNRMC,082638.00,A,3030.1669868,N,11425.7514422,E,0.08,0.00,200524,0.0,E,R,V*42
$GNGGA,082638.00,3030.1669868,N,11425.7514422,E,5,06,1.0,47.223,M,-13.676,M,-1.0,0000*62
$GPGSA,A,3,05,06,11,13,20,29,,,,,,,2.8,1.4,2.4,1*2E
$GPGSV,2,1,06,05,59,302,45,06,25,099,41,11,56,065,46,13,46,169,45,0*60
$GPGSV,2,2,06,20,59,009,44,29,30,315,45,,,,,,,,,0*6A
$GNRMC,082639.00,A,3030.1669885,N,11425.7514441,E,0.12,0.00,200524,0.0,E,R,V*4E
$GNGGA,082639.00,3030.1669885,N,11425.7514441,E,5,06,1.0,47.222,M,-13.676,M,-1.0,0000*64
$GPGSA,A,3,05,06,11,13,20,29,,,,,,,2.8,1.4,2.4,1*2E
$GPGSV,2,1,06,05,59,302,45,06,24,099,41,11,56,065,46,13,46,169,45,0*61
$GPGSV,2,2,06,20,59,009,44,29,30,315,45,,,,,,,,,0*6A
$GNRMC,082640.00,A,3030.1669893,N,11425.7514438,E,0.05,0.00,200524,0.0,E,R,V*4F
$GNGGA,082640.00,3030.1669893,N,11425.7514438,E,5,06,1.0,47.223,M,-13.676,M,-1.0,0000*62
$GPGSA,A,3,05,06,11,13,20,29,,,,,,,2.8,1.4,2.4,1*2E
$GPGSV,2,1,06,05,59,302,45,06,24,099,41,11,56,065,45,13,46,169,45,0*62
$GPGSV,2,2,06,20,59,009,44,29,30,315,45,,,,,,,,,0*6A
$GNRMC,082641.00,A,3030.1669930,N,11425.7514484,E,0.04,0.00,200524,0.0,E,R,V*40
$GNGGA,082641.00,3030.1669930,N,11425.7514484,E,5,06,1.0,47.211,M,-13.676,M,-1.0,0000*6D
$GPGSA,A,3,05,06,11,13,20,29,,,,,,,2.8,1.4,2.4,1*2E
$GPGSV,2,1,06,05,59,302,45,06,24,099,41,11,56,065,45,13,46,169,46,0*61
$GPGSV,2,2,06,20,59,009,44,29,30,315,45,,,,,,,,,0*6A
$GNRMC,082642.00,A,3030.1669985,N,11425.7514520,E,0.15,0.00,200524,0.0,E,R,V*42
$GNGGA,082642.00,3030.1669985,N,11425.7514520,E,5,06,1.0,47.210,M,-13.676,M,0.0,0000*42
$GPGSA,A,3,05,06,11,13,20,29,,,,,,,2.8,1.4,2.4,1*2E
$GPGSV,2,1,06,05,59,302,44,06,24,099,41,11,56,065,45,13,46,169,45,0*63
$GPGSV,2,2,06,20,59,009,44,29,30,315,45,,,,,,,,,0*6A
$GNRMC,082643.00,A,3030.1669972,N,11425.7514496,E,0.03,0.00,200524,0.0,E,R,V*40
$GNGGA,082643.00,3030.1669972,N,11425.7514496,E,5,06,1.0,47.205,M,-13.676,M,0.0,0000*43
$GPGSA,A,3,05,06,11,13,20,29,,,,,,,2.8,1.4,2.4,1*2E
$GPGSV,2,1,06,05,59,303,45,06,24,099,41,11,56,065,45,13,46,169,45,0*63
$GPGSV,2,2,06,20,59,009,44,29,30,315,45,,,,,,,,,0*6A
$GNRMC,082644.00,A,3030.1669971,N,11425.7514489,E,0.16,0.00,200524,0.0,E,R,V*4E
$GNGGA,082644.00,3030.1669971,N,11425.7514489,E,5,06,1.0,47.209,M,-13.676,M,-1.0,0000*69
