$GPGSA,A,1,06,11,,,,,,,,,,,0.0,0.0,0.0,1*2B
$GNRMC,082355.00,A,3030.1671681,N,11425.7504970,E,0.17,0.00,200524,0.0,E,R,V*49
$GNGGA,082355.00,3030.1671681,N,11425.7504970,E,5,04,1.0,44.561,M,-13.676,M,0.0,0000*4B
$GPGSA,A,3,06,11,13,15,20,,,,,,,,3.9,1.9,3.4,1*28
$GPGSV,2,1,06,06,25,098,39,11,57,062,45,12,15,231,40,13,45,169,44,0*63
$GPGSV,2,2,06,15,24,206,41,20,60,007,45,,,,,,,,,0*62
$GNRMC,082356.00,A,3030.1668923,N,11425.7511479,E,0.10,0.00,200524,0.0,E,R,V*42
$GNGGA,082356.00,3030.1668923,N,11425.7511479,E,5,05,1.0,46.815,M,-13.676,M,-1.0,0000*66
$GPGSA,A,3,06,11,13,15,20,29,,,,,,,2.7,1.2,2.4,1*26
$GPGSV,2,1,07,06,25,098,39,11,57,063,44,12,15,231,39,13,45,169,44,0*6C
$GPGSV,2,2,07,15,24,206,41,20,60,007,45,29,29,316,44,,,,,0*57
$GNRMC,082357.00,A,3030.1668692,N,11425.7511891,E,0.13,0.00,200524,0.0,E,R,V*4F
$GNGGA,082357.00,3030.1668692,N,11425.7511891,E,5,06,1.0,47.140,M,-13.676,M,-1.0,0000*63
$GPGSA,A,3,05,06,11,13,15,20,29,,,,,,2.4,1.1,2.2,1*25
$GPGSV,2,1,08,05,59,300,46,06,25,098,39,11,57,063,44,12,15,231,39,0*66
$GPGSV,2,2,08,13,45,169,44,15,24,206,41,20,60,007,46,29,29,316,43,0*61
$GNRMC,082358.00,A,3030.1668723,N,11425.7512109,E,0.15,0.00,200524,0.0,E,R,V*46
$GNGGA,082358.00,3030.1668723,N,11425.7512109,E,5,06,1.0,47.222,M,-13.676,M,0.0,0000*47
$GPGSA,A,3,05,06,11,13,15,20,29,,,,,,2.4,1.1,2.2,1*25
$GPGSV,2,1,08,05,59,300,45,06,25,098,39,11,57,063,44,12,15,231,39,0*65
$GPGSV,2,2,08,13,45,169,44,15,24,206,41,20,60,007,46,29,29,316,43,0*61
$GNRMC,082359.00,A,3030.1668632,N,11425.7512099,E,0.08,0.00,200524,0.0,E,R,V*42
$GNGGA,082359.00,3030.1668632,N,11425.7512099,E,5,06,1.0,47.292,M,-13.676,M,-1.0,0000*68
$GPGSA,A,3,05,06,11,13,15,20,29,,,,,,2.4,1.1,2.2,1*25
$GPGSV,2,1,08,05,59,300,44,06,25,098,39,11,57,063,44,12,15,231,39,0*64
$GPGSV,2,2,08,13,45,169,44,15,24,206,42,20,60,007,45,29,29,316,43,0*61
$GNRMC,082400.00,A,3030.1668623,N,11425.7511928,E,0.16,0.00,200524,0.0,E,R,V*46
$GNGGA,082400.00,3030.1668623,N,11425.7511928,E,5,06,1.0,47.329,M,-13.676,M,0.0,0000*4E
$GPGSA,A,3,05,06,11,13,15,20,29,,,,,,2.4,1.1,2.2,1*25
$GPGSV,2,1,08,05,59,300,44,06,25,098,39,11,57,063,44,12,15,231,39,0*64
$GPGSV,2,2,08,13,45,169,44,15,24,206,41,20,60,007,45,29,29,316,43,0*62
$GNRMC,082401.00,A,3030.1668580,N,11425.7511807,E,0.05,0.00,200524,0.0,E,R,V*43
$GNGGA,082401.00,3030.1668580,N,11425.7511807,E,5,06,1.0,47.246,M,-13.676,M,-1.0,0000*6D
$GPGSA,A,3,05,06,11,13,15,20,29,,,,,,2.4,1.1,2.2,1*25
$GPGSV,2,1,08,05,59,300,45,06,25,098,39,11,57,063,44,12,15,231,39,0*65
$GPGSV,2,2,08,13,45,169,45,15,24,206,42,20,60,007,45,29,29,316,43,0*60
$GNRMC,082402.00,A,3030.1668624,N,11425.7511757,E,0.20,0.00,200524,0.0,E,R,V*40
$GNGGA,082402.00,3030.1668624,N,11425.7511757,E,5,06,1.0,47.210,M,-13.676,M,0.0,0000*46
$GPGSA,A,3,05,06,11,13,15,20,29,,,,,,2.4,1.1,2.2,1*25
$GPGSV,2,1,08,05,59,300,45,06,25,098,39,11,57,063,44,12,15,231,39,0*65
$GPGSV,2,2,08,13,45,169,45,15,24,206,41,20,60,007,45,29,29,316,43,0*63
$GNRMC,082403.00,A,3030.1668624,N,11425.7511759,E,0.19,0.00,200524,0.0,E,R,V*45
$GNGGA,082403.00,3030.1668624,N,11425.7511759,E,5,06,1.0,47.214,M,-13.676,M,0.0,0000*4D
$GPGSA,A,3,05,06,11,13,15,20,29,,,,,,2.4,1.1,2.2,1*25
$GPGSV,2,1,08,05,59,300,45,06,25,098,39,11,56,063,44,12,15,231,39,0*64
$GPGSV,2,2,08,13,45,169,44,15,24,206,41,20,60,007,46,29,29,316,44,0*66
$GNRMC,082404.00,A,3030.1668684,N,11425.7511648,E,0.11,0.00,200524,0.0,E,R,V*41
$GNGGA,082404.00,3030.1668684,N,11425.7511648,E,5,06,1.0,47.246,M,-13.676,M,1.0,0000*47
$GPGSA,A,3,05,06,11,13,15,20,29,,,,,,2.4,1.1,2.2,1*25
$GPGSV,2,1,08,05,59,300,45,06,25,098,39,11,56,063,44,12,15,231,39,0*64
$GPGSV,2,2,08,13,45,169,44,15,24,206,42,20,60,007,45,29,29,316,44,0*66
$GNRMC,082405.00,A,3030.1668670,N,11425.7511591,E,0.21,0.00,200524,0.0,E,R,V*4F
$GNGGA,082405.00,3030.1668670,N,11425.7511591,E,5,06,1.0,47.284,M,-13.676,M,0.0,0000*45
$GPGSA,A,3,05,06,11,13,15,20,29,,,,,,2.4,1.1,2.2,1*25
$GPGSV,2,1,08,05,59,300,45,06,25,098,39,11,56,063,44,12,15,231,39,0*64
$GPGSV,2,2,08,13,45,169,44,15,24,206,42,20,60,007,45,29,29,316,44,0*66
$GNRMC,082406.00,A,3030.1668743,N,11425.7511712,E,0.15,0.00,200524,0.0,E,R,V*43
$GNGGA,082406.00,3030.1668743,N,11425.7511712,E,5,06,1.0,47.323,M,-13.676,M,1.0,0000*43
$GPGSA,A,3,05,06,11,13,15,20,29,,,,,,2.4,1.1,2.2,1*25
$GPGSV,2,1,08,05,59,300,45,06,25,098,40,11,56,063,44,12,15,231,38,0*6B
$GPGSV,2,2,08,13,45,169,45,15,24,206,41,20,60,007,44,29,30,316,44,0*6D
$GNRMC,082407.00,A,3030.1668724,N,11425.7511744,E,0.11,0.00,200524,0.0,E,R,V*44
$GNGGA,082407.00,3030.1668724,N,11425.7511744,E,5,06,1.0,47.376,M,-13.676,M,0.0,0000*41
$GPGSA,A,3,05,06,11,13,15,20,29,,,,,,2.4,1.1,2.2,1*25
$GPGSV,2,1,08,05,59,300,45,06,25,098,39,11,56,063,45,12,15,231,38,0*64
$GPGSV,2,2,08,13,45,169,45,15,24,206,41,20,60,007,44,29,30,316,44,0*6D
$GNRMC,082408.00,A,3030.1669335,N,11425.7511499,E,0.03,0.00,200524,0.0,E,R,V*4E
$GNGGA,082408.00,3030.1669335,N,11425.7511499,E,4,06,1.0,47.391,M,-13.676,M,-1.0,0000*6C
$GPGSA,A,3,05,06,11,13,15,20,29,,,,,,2.4,1.1,2.2,1*25
$GPGSV,2,1,08,05,59,300,45,06,25,098,39,11,56,063,46,12,15,231,38,0*67
$GPGSV,2,2,08,13,45,169,45,15,24,206,41,20,60,007,44,29,30,316,45,0*6C
$GNRMC,082409.00,A,3030.1668710,N,11425.7511771,E,0.10,0.00,200524,0.0,E,R,V*4A
$GNGGA,082409.00,3030.1668710,N,11425.7511771,E,5,06,1.0,47.366,M,-13.676,M,-1.0,0000*63
$GPGSA,A,3,05,06,11,13,15,20,29,,,,,,2.4,1.1,2.2,1*25
$GPGSV,2,1,08,05,59,300,46,06,25,098,41,11,56,063,46,12,15,231,38,0*6B
$GPGSV,2,2,08,13,45,169,45,15,24,206,41,20,60,007,45,29,30,316,44,0*6C
$GNRMC,082410.00,A,3030.1668745,N,11425.7511760,E,0.06,0.00,200524,0.0,E,R,V*45
$GNGGA,082410.00,3030.1668745,N,11425.7511760,E,5,06,1.0,47.364,M,-13.676,M,-1.0,0000*69
$GPGSA,A,3,05,06,11,13,15,20,29,,,,,,2.4,1.1,2.2,1*25
$GPGSV,2,1,08,05,59,300,46,06,25,098,41,11,56,063,46,12,15,231,38,0*6B
$GPGSV,2,2,08,13,45,169,45,15,24,206,41,20,60,007,45,29,30,316,44,0*6C
$GNRMC,082411.00,A,3030.1668813,N,11425.7511831,E,0.17,0.00,200524,0.0,E,R,V*43
$GNGGA,082411.00,3030.1668813,N,11425.7511831,E,5,06,1.0,47.362,M,-13.676,M,-1.0,0000*69
$GPGSA,A,3,05,06,11,13,15,20,29,,,,,,2.4,1.1,2.2,1*25
$GPGSV,2,1,08,05,59,300,45,06,25,098,41,11,56,063,46,12,15,231,38,0*68
$GPGSV,2,2,08,13,45,169,45,15,24,206,41,20,60,007,45,29,30,316,45,0*6D
$GNRMC,082412.00,A,3030.1668872,N,11425.7511875,E,0.05,0.00,200524,0.0,E,R,V*44
$GNGGA,082412.00,3030.1668872,N,11425.7511875,E,5,06,1.0,47.397,M,-13.676,M,-1.0,0000*67
$GPGSA,A,3,05,06,11,13,15,20,29,,,,,,2.4,1.1,2.2,1*25
$GPGSV,2,1,08,05,59,300,45,06,25,098,41,11,56,063,46,12,15,231,38,0*68
$GPGSV,2,2,08,13,45,169,45,15,24,206,42,20,60,007,44,29,30,316,45,0*6F
$GNRMC,082413.00,A,3030.1668948,N,11425.7511991,E,0.13,0.00,200524,0.0,E,R,V*41
$GNGGA,082413.00,3030.1668948,N,11425.7511991,E,5,06,1.0,47.390,M,-13.676,M,0.0,0000*4E
$GPGSA,A,3,05,06,11,13,15,20,29,,,,,,2.4,1.1,2.2,1*25
$GPGSV,2,1,08,05,59,300,45,06,25,098,41,11,56,063,46,12,15,231,38,0*68
$GPGSV,2,2,08,13,45,169,45,15,24,206,41,20,60,007,44,29,30,316,45,0*6C
$GNRMC,082414.00,A,3030.1669019,N,11425.7512130,E,0.08,0.00,200524,0.0,E,R,V*40
$GNGGA,082414.00,3030.1669019,N,11425.7512130,E,5,06,1.0,47.365,M,-13.676,M,0.0,0000*4F
$GPGSA,A,3,05,06,11,13,15,20,29,,,,,,2.4,1.1,2.2,1*25
$GPGSV,2,1,08,05,59,300,45,06,25,098,42,11,56,063,45,12,15,231,38,0*68
$GPGSV,2,2,08,13,45,169,45,15,24,206,42,20,60,007,44,29,30,316,44,0*6E
$GNRMC,082415.00,A,3030.1669124,N,11425.7512289,E,0.06,0.00,200524,0.0,E,R,V*41
$GNGGA,082415.00,3030.1669124,N,11425.7512289,E,5,06,1.0,47.364,M,-13.676,M,1.0,0000*40
$GPGSA,A,3,05,06,11,13,15,20,29,,,,,,2.4,1.1,2.2,1*25
$GPGSV,2,1,08,05,59,300,46,06,25,098,42,11,56,063,45,12,15,231,38,0*6B
$GPGSV,2,2,08,13,45,169,45,15,24,206,42,20,60,007,44,29,30,316,44,0*6E
$GNRMC,082416.00,A,3030.1669173,N,11425.7512374,E,0.17,0.00,200524,0.0,E,R,V*43
$GNGGA,082416.00,3030.1669173,N,11425.7512374,E,5,06,1.0,47.365,M,-13.676,M,0.0,0000*42
$GPGSA,A,3,05,06,11,13,15,20,29,,,,,,2.4,1.1,2.2,1*25
$GPGSV,2,1,08,05,59,300,45,06,25,098,42,11,56,063,46,12,15,231,38,0*6B
$GPGSV,2,2,08,13,45,169,45,15,24,206,42,20,60,007,45,29,30,316,45,0*6E
$GNRMC,082417.00,A,3030.1669258,N,11425.7512520,E,0.09,0.00,200524,0.0,E,R,V*40
$GNGGA,082417.00,3030.1669258,N,11425.7512520,E,5,06,1.0,47.371,M,-13.676,M,0.0,0000*4B
$GPGSA,A,3,05,06,11,13,15,20,29,,,,,,2.4,1.1,2.2,1*25
$GPGSV,2,1,08,05,59,300,45,06,25,098,42,11,56,063,46,12,15,231,39,0*6A
$GPGSV,2,2,08,13,45,169,45,15,24,206,42,20,60,007,45,29,30,316,44,0*6F
$GNRMC,082418.00,A,3030.1669315,N,11425.7512678,E,0.08,0.00,200524,0.0,E,R,V*48
$GNGGA,082418.00,3030.1669315,N,11425.7512678,E,5,06,1.0,47.357,M,-13.676,M,0.0,0000*46
$GPGSA,A,3,05,06,11,13,15,20,29,,,,,,2.4,1.1,2.2,1*25
$GPGSV,2,1,08,05,59,300,45,06,25,098,42,11,56,063,46,12,15,231,38,0*6B
$GPGSV,2,2,08,13,45,169,45,15,24,206,42,20,60,007,44,29,30,316,44,0*6E
$GNRMC,082419.00,A,3030.1669334,N,11425.7512791,E,0.09,0.00,200524,0.0,E,R,V*4D
$GNGGA,082419.00,3030.1669334,N,11425.7512791,E,5,06,1.0,47.356,M,-13.676,M,0.0,0000*43
$GPGSA,A,3,05,06,11,13,15,20,29,,,,,,2.4,1.1,2.2,1*25
$GPGSV,2,1,08,05,59,300,45,06,25,098,42,11,56,063,46,12,15,231,39,0*6A
$GPGSV,2,2,08,13,45,169,45,15,24,206,42,20,60,007,44,29,30,316,44,0*6E
$GNRMC,082420.00,A,3030.1669280,N,11425.7512881,E,0.03,0.00,200524,0.0,E,R,V*4D
$GNGGA,082420.00,3030.1669280,N,11425.7512881,E,5,06,1.0,47.355,M,-13.676,M,-1.0,0000*66
$GPGSA,A,3,05,06,11,13,15,20,29,,,,,,2.4,1.1,2.2,1*25
$GPGSV,2,1,08,05,59,300,45,06,25,098,42,11,56,063,45,12,15,231,39,0*69
$GPGSV,2,2,08,13,45,169,45,15,24,206,42,20,60,007,45,29,30,316,44,0*6F
$GNRMC,082421.00,A,3030.1669326,N,11425.7513047,E,0.14,0.00,200524,0.0,E,R,V*44
$GNGGA,082421.00,3030.1669326,N,11425.7513047,E,5,06,1.0,47.345,M,-13.676,M,-1.0,0000*68
$GPGSA,A,3,05,06,11,13,15,20,29,,,,,,2.4,1.1,2.2,1*25
$GPGSV,2,1,08,05,59,300,45,06,25,098,42,11,56,063,45,12,15,231,39,0*69
$GPGSV,2,2,08,13,45,169,45,15,24,206,42,20,60,007,45,29,30,316,44,0*6F
$GNRMC,082422.00,A,3030.1669279,N,11425.7513116,E,0.13,0.00,200524,0.0,E,R,V*4E
$GNGGA,082422.00,3030.1669279,N,11425.7513116,E,5,06,1.0,47.347,M,-13.676,M,-1.0,0000*67
$GPGSA,A,3,05,06,11,13,15,20,29,,,,,,2.4,1.1,2.2,1*25
$GPGSV,2,1,08,05,59,300,44,06,25,098,42,11,56,063,46,12,15,231,39,0*6B
$GPGSV,2,2,08,13,45,169,45,15,24,206,42,20,60,007,44,29,30,316,44,0*6E
$GNRMC,082423.00,A,3030.1669263,N,11425.7513205,E,0.04,0.00,200524,0.0,E,R,V*43
$GNGGA,082423.00,3030.1669263,N,11425.7513205,E,5,06,1.0,47.329,M,-13.676,M,-1.0,0000*64
$GPGSA,A,3,05,06,11,13,15,20,29,,,,,,2.4,1.1,2.2,1*25
$GPGSV,2,1,08,05,59,300,44,06,25,098,42,11,56,063,46,12,15,231,38,0*6A
$GPGSV,2,2,08,13,45,169,45,15,24,206,42,20,60,007,44,29,30,316,44,0*6E
$GNRMC,082424.00,A,3030.1669258,N,11425.7513310,E,0.13,0.00,200524,0.0,E,R,V*4F
$GNGGA,082424.00,3030.1669258,N,11425.7513310,E,5,06,1.0,47.321,M,-13.676,M,-1.0,0000*66
$GPGSA,A,3,05,06,11,13,15,20,29,,,,,,2.4,1.1,2.2,1*25
$GPGSV,2,1,08,05,59,300,45,06,25,098,41,11,56,063,46,12,15,231,39,0*69
$GPGSV,2,2,08,13,45,169,45,15,24,206,41,20,60,007,45,29,30,316,44,0*6C
$GNRMC,082425.00,A,3030.1669277,N,11425.7513370,E,0.23,0.00,200524,0.0,E,R,V*46
$GNGGA,082425.00,3030.1669277,N,11425.7513370,E,5,06,1.0,47.318,M,-13.676,M,-1.0,0000*66
$GPGSA,A,3,05,06,11,13,15,20,29,,,,,,2.4,1.1,2.2,1*25
$GPGSV,2,1,08,05,59,300,45,06,25,098,41,11,56,063,45,12,15,231,38,0*6B
$GPGSV,2,2,08,13,45,169,45,15,24,206,42,20,60,007,45,29,30,316,44,0*6F
$GNRMC,082426.00,A,3030.1669261,N,11425.7513419,E,0.19,0.00,200524,0.0,E,R,V*43
$GNGGA,082426.00,3030.1669261,N,11425.7513419,E,5,06,1.0,47.330,M,-13.676,M,-1.0,0000*60
$GPGSA,A,3,05,06,11,13,15,20,29,,,,,,2.4,1.1,2.2,1*25
$GPGSV,2,1,08,05,59,300,45,06,25,098,41,11,56,063,46,12,15,231,38,0*68
$GPGSV,2,2,08,13,45,169,45,15,24,206,42,20,60,007,45,29,30,316,43,0*68
$GNRMC,082427.00,A,3030.1669255,N,11425.7513492,E,0.07,0.00,200524,0.0,E,R,V*49
$GNGGA,082427.00,3030.1669255,N,11425.7513492,E,5,06,1.0,47.317,M,-13.676,M,-1.0,0000*60
$GPGSA,A,3,05,06,11,13,15,20,29,,,,,,2.4,1.1,2.2,1*25
$GPGSV,2,1,08,05,59,300,45,06,25,098,41,11,56,063,46,12,15,231,39,0*69
$GPGSV,2,2,08,13,45,169,45,15,24,206,42,20,60,007,44,29,30,316,44,0*6E
$GNRMC,082428.00,A,3030.1669268,N,11425.7513555,E,0.11,0.00,200524,0.0,E,R,V*45
$GNGGA,082428.00,3030.1669268,N,11425.7513555,E,5,06,1.0,47.311,M,-13.676,M,0.0,0000*41
$GPGSA,A,3,05,06,11,13,15,20,29,,,,,,2.4,1.1,2.2,1*25
$GPGSV,2,1,08,05,59,300,45,06,25,098,42,11,56,063,46,12,15,231,39,0*6A
$GPGSV,2,2,08,13,45,169,45,15,24,206,42,20,60,007,44,29,30,316,44,0*6E
$GNRMC,082429.00,A,3030.1669278,N,11425.7513616,E,0.09,0.00,200524,0.0,E,R,V*48
$GNGGA,082429.00,3030.1669278,N,11425.7513616,E,5,06,1.0,47.296,M,-13.676,M,0.0,0000*4B
$GPGSA,A,3,05,06,11,13,15,20,29,,,,,,2.4,1.1,2.2,1*25
$GPGSV,2,1,08,05,59,300,45,06,25,098,42,11,56,063,46,12,15,231,39,0*6A
$GPGSV,2,2,08,13,45,169,45,15,24,206,42,20,60,007,44,29,30,316,44,0*6E
$GNRMC,082430.00,A,3030.1669309,N,11425.7513674,E,0.07,0.00,200524,0.0,E,R,V*4D
$GNGGA,082430.00,3030.1669309,N,11425.7513674,E,5,06,1.0,47.277,M,-13.676,M,0.0,0000*4F
$GPGSA,A,3,05,06,11,13,15,20,29,,,,,,2.4,1.1,2.2,1*25
$GPGSV,2,1,08,05,59,300,45,06,25,098,42,11,56,063,46,12,15,231,39,0*6A
$GPGSV,2,2,08,13,45,169,45,15,24,206,42,20,60,007,44,29,30,316,44,0*6E
$GNRMC,082431.00,A,3030.1669313,N,11425.7513723,E,0.17,0.00,200524,0.0,E,R,V*45
$GNGGA,082431.00,3030.1669313,N,11425.7513723,E,5,06,1.0,47.262,M,-13.676,M,0.0,0000*42
$GPGSA,A,3,05,06,11,13,15,20,29,,,,,,2.4,1.1,2.2,1*25
$GPGSV,2,1,08,05,59,300,45,06,25,098,42,11,56,063,46,12,15,231,39,0*6A
$GPGSV,2,2,08,13,45,169,45,15,24,206,42,20,60,007,44,29,30,316,44,0*6E
$GNRMC,082432.00,A,3030.1669341,N,11425.7513792,E,0.05,0.00,200524,0.0,E,R,V*48
$GNGGA,082432.00,3030.1669341,N,11425.7513792,E,5,06,1.0,47.257,M,-13.676,M,0.0,0000*4A
$GPGSA,A,3,05,06,11,13,15,20,29,,,,,,2.4,1.1,2.2,1*25
$GPGSV,2,1,08,05,59,300,45,06,25,098,42,11,56,063,46,12,15,231,39,0*6A
$GPGSV,2,2,08,13,45,169,45,15,24,206,42,20,60,007,45,29,30,316,44,0*6F
$GNRMC,082433.00,A,3030.1669349,N,11425.7513811,E,0.05,0.00,200524,0.0,E,R,V*45
$GNGGA,082433.00,3030.1669349,N,11425.7513811,E,5,06,1.0,47.268,M,-13.676,M,-1.0,0000*67
$GPGSA,A,3,05,06,11,13,15,20,29,,,,,,2.4,1.1,2.2,1*25
$GPGSV,2,1,08,05,59,300,45,06,25,098,42,11,56,063,47,12,15,231,38,0*6A
$GPGSV,2,2,08,13,45,169,45,15,24,206,42,20,60,007,45,29,30,316,44,0*6F
$GNRMC,082434.00,A,3030.1669357,N,11425.7513837,E,0.05,0.00,200524,0.0,E,R,V*49
$GNGGA,082434.00,3030.1669357,N,11425.7513837,E,5,06,1.0,47.265,M,-13.676,M,-1.0,0000*66
$GPGSA,A,3,05,06,11,13,15,20,29,,,,,,2.4,1.1,2.2,1*25
$GPGSV,2,1,08,05,59,300,45,06,25,098,42,11,56,063,46,12,15,231,38,0*6B
$GPGSV,2,2,08,13,45,169,45,15,24,206,42,20,60,007,45,29,30,316,44,0*6F
$GNRMC,082435.00,A,3030.1669423,N,11425.7513908,E,0.09,0.00,200524,0.0,E,R,V*4D
$GNGGA,082435.00,3030.1669423,N,11425.7513908,E,5,06,1.0,47.270,M,-13.676,M,0.0,0000*46
$GPGSA,A,3,05,06,11,13,15,20,29,,,,,,2.4,1.1,2.2,1*25
$GPGSV,2,1,08,05,59,301,45,06,25,098,41,11,56,063,46,12,15,231,38,0*69
$GPGSV,2,2,08,13,45,169,45,15,24,206,42,20,60,007,45,29,30,316,44,0*6F
$GNRMC,082436.00,A,3030.1669413,N,11425.7513889,E,0.10,0.00,200524,0.0,E,R,V*4D
$GNGGA,082436.00,3030.1669413,N,11425.7513889,E,5,06,1.0,47.276,M,-13.676,M,-1.0,0000*64
$GPGSA,A,3,05,06,11,13,15,20,29,,,,,,2.4,1.1,2.2,1*25
$GPGSV,2,1,08,05,59,301,45,06,25,098,41,11,56,063,45,12,15,231,38,0*6A
$GPGSV,2,2,08,13,45,169,45,15,24,206,42,20,60,007,44,29,30,316,44,0*6E
$GNRMC,082437.00,A,3030.1669473,N,11425.7513938,E,0.12,0.00,200524,0.0,E,R,V*43
$GNGGA,082437.00,3030.1669473,N,11425.7513938,E,5,06,1.0,47.269,M,-13.676,M,0.0,0000*4A
$GPGSA,A,3,05,06,11,13,15,20,29,,,,,,2.4,1.1,2.2,1*25
$GPGSV,2,1,08,05,59,301,45,06,25,098,41,11,56,063,46,12,15,231,38,0*69
$GPGSV,2,2,08,13,45,169,45,15,24,206,42,20,60,007,45,29,30,316,44,0*6F
$GNRMC,082438.00,A,3030.1669475,N,11425.7513943,E,0.11,0.00,200524,0.0,E,R,V*45
$GNGGA,082438.00,3030.1669475,N,11425.7513943,E,5,06,1.0,47.287,M,-13.676,M,-1.0,0000*63
$GPGSA,A,3,05,06,11,13,15,20,29,,,,,,2.4,1.1,2.2,1*25
$GPGSV,2,1,08,05,59,301,45,06,25,098,41,11,56,063,46,12,15,231,38,0*69
$GPGSV,2,2,08,13,45,169,45,15,24,206,42,20,60,007,45,29,30,316,44,0*6F
$GNRMC,082439.00,A,3030.1669513,N,11425.7513950,E,0.18,0.00,200524,0.0,E,R,V*4E
$GNGGA,082439.00,3030.1669513,N,11425.7513950,E,5,06,1.0,47.290,M,-13.676,M,0.0,0000*4B
$GPGSA,A,3,05,06,11,13,15,20,29,,,,,,2.4,1.1,2.2,1*25
$GPGSV,2,1,07,05,59,301,45,06,25,098,41,11,56,063,46,13,45,169,45,0*66
$GPGSV,2,2,07,15,24,206,42,20,60,007,45,29,30,316,44,,,,,0*5C
$GNRMC,082440.00,A,3030.1669520,N,11425.7513974,E,0.08,0.00,200524,0.0,E,R,V*47
$GNGGA,082440.00,3030.1669520,N,11425.7513974,E,5,06,1.0,47.283,M,-13.676,M,-1.0,0000*6D
$GPGSA,A,3,05,06,11,13,15,20,29,,,,,,2.4,1.1,2.2,1*25
$GPGSV,2,1,07,05,59,301,45,06,25,098,41,11,56,063,46,13,45,169,45,0*66
$GPGSV,2,2,07,15,24,206,42,20,60,007,45,29,30,316,44,,,,,0*5C
$GNRMC,082441.00,A,3030.1669581,N,11425.7514038,E,0.07,0.00,200524,0.0,E,R,V*44
$GNGGA,082441.00,3030.1669581,N,11425.7514038,E,5,06,1.0,47.275,M,-13.676,M,0.0,0000*44
$GPGSA,A,3,05,06,11,13,15,20,29,,,,,,2.4,1.1,2.2,1*25
$GPGSV,2,1,07,05,59,301,45,06,25,098,41,11,56,063,46,13,45,169,45,0*66
$GPGSV,2,2,07,15,24,206,42,20,60,007,45,29,30,316,44,,,,,0*5C
$GNRMC,082442.00,A,3030.1669633,N,11425.7514108,E,0.05,0.00,200524,0.0,E,R,V*4D
$GNGGA,082442.00,3030.1669633,N,11425.7514108,E,5,06,1.0,47.260,M,-13.676,M,0.0,0000*4B
$GPGSA,A,3,05,06,11,13,15,20,29,,,,,,2.4,1.1,2.2,1*25
$GPGSV,2,1,07,05,59,301,45,06,25,098,41,11,56,063,46,13,45,169,45,0*66
$GPGSV,2,2,07,15,24,206,42,20,60,007,44,29,30,316,44,,,,,0*5D
$GNRMC,082443.00,A,3030.1669676,N,11425.7514154,E,0.08,0.00,200524,0.0,E,R,V*49
$GNGGA,082443.00,3030.1669676,N,11425.7514154,E,5,06,1.0,47.245,M,-13.676,M,1.0,0000*44
$GPGSA,A,3,05,06,11,13,15,20,29,,,,,,2.4,1.1,2.2,1*25
$GPGSV,2,1,07,05,59,301,45,06,25,098,41,11,56,063,47,13,45,169,45,0*67
$GPGSV,2,2,07,15,24,206,42,20,60,007,44,29,30,316,44,,,,,0*5D
$GNRMC,082444.00,A,3030.1669662,N,11425.7514179,E,0.20,0.00,200524,0.0,E,R,V*4E
$GNGGA,082444.00,3030.1669662,N,11425.7514179,E,5,06,1.0,47.222,M,-13.676,M,0.0,0000*49
$GPGSA,A,3,05,06,11,13,15,20,29,,,,,,2.4,1.1,2.2,1*25
$GPGSV,2,1,07,05,59,301,45,06,25,098,41,11,56,063,46,13,45,169,45,0*66
$GPGSV,2,2,07,15,24,206,42,20,60,007,44,29,30,316,44,,,,,0*5D
$GNRMC,082445.00,A,3030.1669661,N,11425.7514202,E,0.03,0.00,200524,0.0,E,R,V*42
$GNGGA,082445.00,3030.1669661,N,11425.7514202,E,5,06,1.0,47.207,M,-13.676,M,-1.0,0000*6F
$GPGSA,A,3,05,06,11,13,15,20,29,,,,,,2.4,1.1,2.2,1*25
$GPGSV,2,1,07,05,59,301,45,06,25,098,41,11,56,063,46,13,45,169,45,0*66
$GPGSV,2,2,07,15,24,206,42,20,60,008,44,29,30,316,44,,,,,0*52
$GNRMC,082446.00,A,3030.1669693,N,11425.7514228,E,0.06,0.00,200524,0.0,E,R,V*41
$GNGGA,082446.00,3030.1669693,N,11425.7514228,E,5,06,1.0,47.185,M,-13.676,M,0.0,0000*4C
$GPGSA,A,3,05,06,11,13,15,20,29,,,,,,2.4,1.1,2.2,1*25
$GPGSV,2,1,07,05,59,301,45,06,25,098,41,11,56,063,46,13,45,169,45,0*66
$GPGSV,2,2,07,15,24,206,42,20,60,008,44,29,30,316,44,,,,,0*52
$GNRMC,082447.00,A,3030.1669683,N,11425.7514276,E,0.09,0.00,200524,0.0,E,R,V*45
$GNGGA,082447.00,3030.1669683,N,11425.7514276,E,5,06,1.0,47.178,M,-13.676,M,-1.0,0000*69
$GPGSA,A,3,05,06,11,13,15,20,29,,,,,,2.4,1.1,2.2,1*25
$GPGSV,2,1,07,05,59,301,45,06,25,098,42,11,56,063,46,13,45,169,45,0*65
$GPGSV,2,2,07,15,24,206,42,20,60,008,44,29,30,316,44,,,,,0*52
$GNRMC,082448.00,A,3030.1669683,N,11425.7514298,E,0.09,0.00,200524,0.0,E,R,V*4A
$GNGGA,082448.00,3030.1669683,N,11425.7514298,E,5,06,1.0,47.156,M,-13.676,M,0.0,0000*46
$GPGSA,A,3,05,06,11,13,15,20,29,,,,,,2.4,1.1,2.2,1*25
$GPGSV,2,1,07,05,59,301,45,06,25,098,41,11,56,063,46,13,45,169,45,0*66
$GPGSV,2,2,07,15,25,206,42,20,60,008,44,29,30,316,44,,,,,0*53
$GNRMC,082449.00,A,3030.1669653,N,11425.7514332,E,0.04,0.00,200524,0.0,E,R,V*4A
$GNGGA,082449.00,3030.1669653,N,11425.7514332,E,5,06,1.0,47.145,M,-13.676,M,-1.0,0000*65
$GPGSA,A,3,05,06,11,13,15,20,29,,,,,,2.4,1.1,2.2,1*25
$GPGSV,2,1,07,05,59,301,45,06,25,098,41,11,56,063,46,13,45,169,45,0*66
$GPGSV,2,2,07,15,25,206,42,20,60,008,44,29,30,316,44,,,,,0*53
$GNRMC,082450.00,A,3030.1669675,N,11425.7514351,E,0.10,0.00,200524,0.0,E,R,V*46
$GNGGA,082450.00,3030.1669675,N,11425.7514351,E,5,06,1.0,47.125,M,-13.676,M,0.0,0000*46
$GPGSA,A,3,05,06,11,13,15,20,29,,,,,,2.4,1.1,2.2,1*25
$GPGSV,2,1,07,05,59,301,45,06,25,098,41,11,56,063,46,13,45,169,45,0*66
$GPGSV,2,2,07,15,25,206,42,20,60,008,44,29,30,316,44,,,,,0*53
$GNRMC,082451.00,A,3030.1669646,N,11425.7514335,E,0.06,0.00,200524,0.0,E,R,V*42
$GNGGA,082451.00,3030.1669646,N,11425.7514335,E,5,06,1.0,47.125,M,-13.676,M,-1.0,0000*69
$GPGSA,A,3,05,06,11,13,15,20,29,,,,,,2.4,1.1,2.2,1*25
$GPGSV,2,1,07,05,59,301,44,06,25,098,41,11,56,063,46,13,45,169,45,0*67
$GPGSV,2,2,07,15,25,206,42,20,60,008,44,29,30,316,44,,,,,0*53
$GNRMC,082452.00,A,3030.1669664,N,11425.7514387,E,0.10,0.00,200524,0.0,E,R,V*4F
$GNGGA,082452.00,3030.1669664,N,11425.7514387,E,5,06,1.0,47.109,M,-13.676,M,0.0,0000*41
$GPGSA,A,3,05,06,11,13,15,20,29,,,,,,2.4,1.1,2.2,1*25
$GPGSV,2,1,07,05,59,301,45,06,25,098,42,11,56,063,46,13,45,169,45,0*65
$GPGSV,2,2,07,15,25,206,42,20,60,008,44,29,30,316,44,,,,,0*53
$GNRMC,082453.00,A,3030.1669638,N,11425.7514377,E,0.11,0.00,200524,0.0,E,R,V*49
$GNGGA,082453.00,3030.1669638,N,11425.7514377,E,5,06,1.0,47.100,M,-13.676,M,-1.0,0000*63
$GPGSA,A,3,05,06,11,13,15,20,29,,,,,,2.4,1.1,2.2,1*25
$GPGSV,2,1,07,05,59,301,45,06,25,098,41,11,56,063,46,13,45,169,45,0*66
$GPGSV,2,2,07,15,25,206,42,20,60,008,45,29,30,316,44,,,,,0*52
$GNRMC,082454.00,A,3030.1669679,N,11425.7514388,E,0.20,0.00,200524,0.0,E,R,V*49
$GNGGA,082454.00,3030.1669679,N,11425.7514388,E,5,06,1.0,47.080,M,-13.676,M,0.0,0000*44
$GPGSA,A,3,05,06,11,13,15,20,29,,,,,,2.4,1.1,2.2,1*25
$GPGSV,2,1,07,05,59,301,45,06,25,098,42,11,56,063,46,13,45,169,45,0*65
$GPGSV,2,2,07,15,25,206,42,20,60,008,44,29,30,316,44,,,,,0*53
$GNRMC,082455.00,A,3030.1669638,N,11425.7514333,E,0.03,0.00,200524,0.0,E,R,V*4C
$GNGGA,082455.00,3030.1669638,N,11425.7514333,E,5,06,1.0,47.080,M,-13.676,M,-1.0,0000*6C
$GPGSA,A,3,05,06,11,13,15,20,29,,,,,,2.4,1.1,2.2,1*25
$GPGSV,2,1,07,05,59,301,45,06,25,098,42,11,56,063,46,13,45,169,45,0*65
$GPGSV,2,2,07,15,25,206,42,20,60,008,44,29,30,316,44,,,,,0*53
$GNRMC,082456.00,A,3030.1669654,N,11425.7514325,E,0.07,0.00,200524,0.0,E,R,V*46
$GNGGA,082456.00,3030.1669654,N,11425.7514325,E,5,06,1.0,47.070,M,-13.676,M,0.0,0000*41
$GPGSA,A,3,05,06,11,13,15,20,29,,,,,,2.4,1.1,2.2,1*25
$GPGSV,2,1,07,05,59,301,45,06,25,098,41,11,56,063,46,13,45,169,46,0*65
$GPGSV,2,2,07,15,25,206,42,20,60,008,44,29,30,316,44,,,,,0*53
$GNRMC,082457.00,A,3030.1669619,N,11425.7514301,E,0.14,0.00,200524,0.0,E,R,V*4A
$GNGGA,082457.00,3030.1669619,N,11425.7514301,E,5,06,1.0,47.095,M,-13.676,M,0.0,0000*44
$GPGSA,A,3,05,06,11,13,15,20,29,,,,,,2.4,1.1,2.2,1*25
$GPGSV,2,1,07,05,59,301,45,06,25,098,41,11,56,063,45,13,45,169,46,0*66
$GPGSV,2,2,07,15,25,206,42,20,60,008,44,29,30,316,44,,,,,0*53
$GNRMC,082458.00,A,3030.1669624,N,11425.7514319,E,0.05,0.00,200524,0.0,E,R,V*42
$GNGGA,082458.00,3030.1669624,N,11425.7514319,E,5,06,1.0,47.079,M,-13.676,M,1.0,0000*4F
$GPGSA,A,3,05,06,11,13,15,20,29,,,,,,2.4,1.1,2.2,1*25
$GPGSV,2,1,07,05,59,301,45,06,25,098,42,11,56,063,45,13,45,169,46,0*65
$GPGSV,2,2,07,15,25,206,42,20,60,008,44,29,30,316,45,,,,,0*52
$GNRMC,082459.00,A,3030.1669597,N,11425.7514289,E,0.09,0.00,200524,0.0,E,R,V*4C
$GNGGA,082459.00,3030.1669597,N,11425.7514289,E,5,06,1.0,47.064,M,-13.676,M,0.0,0000*40
$GPGSA,A,3,05,06,11,13,15,20,29,,,,,,2.4,1.1,2.2,1*25
$GPGSV,2,1,07,05,59,301,45,06,25,098,41,11,56,063,45,13,45,169,45,0*65
$GPGSV,2,2,07,15,25,206,42,20,60,008,44,29,30,316,44,,,,,0*53
$GNRMC,082500.00,A,3030.1669599,N,11425.7514285,E,0.06,0.00,200524,0.0,E,R,V*4C
$GNGGA,082500.00,3030.1669599,N,11425.7514285,E,5,06,1.0,47.063,M,-13.676,M,1.0,0000*49
$GPGSA,A,3,05,06,11,13,15,20,29,,,,,,2.4,1.1,2.2,1*25
$GPGSV,2,1,07,05,59,301,45,06,25,098,41,11,56,063,46,13,45,169,45,0*66
$GPGSV,2,2,07,15,25,206,42,20,60,008,44,29,30,316,45,,,,,0*52
$GNRMC,082501.00,A,3030.1669566,N,11425.7514231,E,0.09,0.00,200524,0.0,E,R,V*4D
$GNGGA,082501.00,3030.1669566,N,11425.7514231,E,5,06,1.0,47.054,M,-13.676,M,0.0,0000*42
$GPGSA,A,3,05,06,11,13,15,20,29,,,,,,2.4,1.1,2.2,1*25
$GPGSV,2,1,07,05,59,301,45,06,25,098,42,11,56,063,46,13,45,169,46,0*66
$GPGSV,2,2,07,15,25,206,42,20,60,008,44,29,30,316,44,,,,,0*53
$GNRMC,082502.00,A,3030.1669528,N,11425.7514217,E,0.08,0.00,200524,0.0,E,R,V*41
$GNGGA,082502.00,3030.1669528,N,11425.7514217,E,5,06,1.0,47.061,M,-13.676,M,-1.0,0000*65
$GPGSA,A,3,05,06,11,13,15,20,29,,,,,,2.4,1.1,2.2,1*25
$GPGSV,2,1,07,05,59,301,45,06,25,098,42,11,56,063,47,13,45,169,45,0*64
$GPGSV,2,2,07,15,25,206,42,20,60,008,44,29,30,316,44,,,,,0*53
$GNRMC,082503.00,A,3030.1669538,N,11425.7514221,E,0.06,0.00,200524,0.0,E,R,V*4A
$GNGGA,082503.00,3030.1669538,N,11425.7514221,E,5,06,1.0,47.054,M,-13.676,M,0.0,0000*4A
$GPGSA,A,3,05,06,11,13,15,20,29,,,,,,2.4,1.1,2.2,1*25
$GPGSV,2,1,07,05,59,301,46,06,25,098,41,11,56,063,46,13,45,169,45,0*65
$GPGSV,2,2,07,15,25,206,42,20,60,008,44,29,30,316,44,,,,,0*53
$GNRMC,082504.00,A,3030.1669492,N,11425.7514183,E,0.02,0.00,200524,0.0,E,R,V*43
$GNGGA,082504.00,3030.1669492,N,11425.7514183,E,5,06,1.0,47.068,M,-13.676,M,-1.0,0000*64
$GPGSA,A,3,05,06,11,13,15,20,29,,,,,,2.4,1.1,2.2,1*25
$GPGSV,2,1,07,05,59,301,46,06,25,098,42,11,56,063,46,13,45,169,45,0*66
$GPGSV,2,2,07,15,25,206,42,20,60,008,44,29,30,316,44,,,,,0*53
$GNRMC,082505.00,A,3030.1669511,N,11425.7514198,E,0.11,0.00,200524,0.0,E,R,V*40
$GNGGA,082505.00,3030.1669511,N,11425.7514198,E,5,06,1.0,47.057,M,-13.676,M,0.0,0000*45
$GPGSA,A,3,05,06,11,13,15,20,29,,,,,,2.4,1.1,2.2,1*25
$GPGSV,2,1,07,05,59,301,45,06,25,098,42,11,56,063,46,13,45,169,45,0*65
$GPGSV,2,2,07,15,25,206,42,20,60,008,44,29,30,316,44,,,,,0*53
$GNRMC,082506.00,A,3030.1669499,N,11425.7514192,E,0.03,0.00,200524,0.0,E,R,V*4B
$GNGGA,082506.00,3030.1669499,N,11425.7514192,E,5,06,1.0,47.066,M,-13.676,M,-1.0,0000*63
$GPGSA,A,3,05,06,11,13,15,20,29,,,,,,2.4,1.1,2.2,1*25
$GPGSV,2,1,07,05,59,301,45,06,25,098,42,11,56,063,46,13,45,169,45,0*65
$GPGSV,2,2,07,15,25,206,42,20,60,008,44,29,30,316,44,,,,,0*53
$GNRMC,082507.00,A,3030.1669501,N,11425.7514200,E,0.23,0.00,200524,0.0,E,R,V*40
$GNGGA,082507.00,3030.1669501,N,11425.7514200,E,5,06,1.0,47.052,M,-13.676,M,0.0,0000*41
$GPGSA,A,3,05,06,11,13,15,20,29,,,,,,2.4,1.1,2.2,1*25
$GPGSV,2,1,07,05,59,301,46,06,25,098,42,11,56,063,46,13,45,169,46,0*65
$GPGSV,2,2,07,15,25,206,42,20,60,008,44,29,30,316,45,,,,,0*52
$GNRMC,082508.00,A,3030.1669477,N,11425.7514169,E,0.14,0.00,200524,0.0,E,R,V*47
$GNGGA,082508.00,3030.1669477,N,11425.7514169,E,5,06,1.0,47.061,M,-13.676,M,-1.0,0000*6E
$GPGSA,A,3,05,06,11,13,15,20,29,,,,,,2.4,1.1,2.2,1*25
$GPGSV,2,1,07,05,59,301,46,06,25,098,42,11,56,064,45,13,45,169,46,0*61
$GPGSV,2,2,07,15,25,206,42,20,60,008,44,29,30,316,45,,,,,0*52
$GNRMC,082509.00,A,3030.1669513,N,11425.7514203,E,0.17,0.00,200524,0.0,E,R,V*49
$GNGGA,082509.00,3030.1669513,N,11425.7514203,E,5,06,1.0,47.056,M,-13.676,M,0.0,0000*4B
$GPGSA,A,3,05,06,11,13,15,20,29,,,,,,2.4,1.1,2.2,1*25
$GPGSV,2,1,07,05,59,301,46,06,25,098,42,11,56,064,45,13,45,169,45,0*62
$GPGSV,2,2,07,15,25,206,42,20,60,008,44,29,30,316,45,,,,,0*52
$GNRMC,082510.00,A,3030.1669526,N,11425.7514225,E,0.10,0.00,200524,0.0,E,R,V*44
$GNGGA,082510.00,3030.1669526,N,11425.7514225,E,5,06,1.0,47.071,M,-13.676,M,0.0,0000*44
$GPGSA,A,3,05,06,11,13,15,20,29,,,,,,2.4,1.1,2.2,1*25
$GPGSV,2,1,07,05,59,301,46,06,25,098,42,11,56,064,45,13,45,169,46,0*61
$GPGSV,2,2,07,15,25,206,42,20,60,008,44,29,30,316,45,,,,,0*52
$GNRMC,082511.00,A,3030.1669573,N,11425.7514236,E,0.09,0.00,200524,0.0,E,R,V*4F
$GNGGA,082511.00,3030.1669573,N,11425.7514236,E,5,06,1.0,47.080,M,-13.676,M,1.0,0000*48
$GPGSA,A,3,05,06,11,13,15,20,29,,,,,,2.4,1.1,2.2,1*25
$GPGSV,2,1,07,05,59,301,45,06,25,098,42,11,56,064,45,13,45,169,46,0*62
$GPGSV,2,2,07,15,25,206,42,20,60,008,44,29,30,316,45,,,,,0*52
$GNRMC,082512.00,A,3030.1669586,N,11425.7514210,E,0.08,0.00,200524,0.0,E,R,V*43
$GNGGA,082512.00,3030.1669586,N,11425.7514210,E,5,06,1.0,47.099,M,-13.676,M,0.0,0000*4C
$GPGSA,A,3,05,06,11,13,15,20,29,,,,,,2.4,1.1,2.2,1*25
$GPGSV,2,1,07,05,59,301,46,06,25,098,42,11,56,064,46,13,45,169,46,0*62
$GPGSV,2,2,07,15,25,206,42,20,60,008,44,29,30,316,45,,,,,0*52
$GNRMC,082513.00,A,3030.1669617,N,11425.7514255,E,0.09,0.00,200524,0.0,E,R,V*49
$GNGGA,082513.00,3030.1669617,N,11425.7514255,E,5,06,1.0,47.110,M,-13.676,M,1.0,0000*46
$GPGSA,A,3,05,06,11,13,15,20,29,,,,,,2.4,1.1,2.2,1*25
$GPGSV,2,1,07,05,59,301,45,06,25,098,42,11,56,064,46,13,45,169,45,0*62
$GPGSV,2,2,07,15,25,206,42,20,60,008,44,29,30,316,45,,,,,0*52
$GNRMC,082514.00,A,3030.1669617,N,11425.7514250,E,0.12,0.00,200524,0.0,E,R,V*41
$GNGGA,082514.00,3030.1669617,N,11425.7514250,E,5,06,1.0,47.121,M,-13.676,M,0.0,0000*47
$GPGSA,A,3,05,06,11,13,15,20,29,,,,,,2.4,1.1,2.2,1*25
$GPGSV,2,1,07,05,59,301,46,06,25,098,42,11,56,064,47,13,45,169,45,0*60
$GPGSV,2,2,07,15,25,206,42,20,60,008,44,29,30,316,45,,,,,0*52
$GNRMC,082515.00,A,3030.1669628,N,11425.7514238,E,0.06,0.00,200524,0.0,E,R,V*47
$GNGGA,082515.00,3030.1669628,N,11425.7514238,E,5,06,1.0,47.137,M,-13.676,M,-1.0,0000*6F
$GPGSA,A,3,05,06,11,13,15,20,29,,,,,,2.4,1.1,2.2,1*25
$GPGSV,2,1,07,05,59,301,46,06,25,098,42,11,56,064,47,13,45,169,46,0*63
$GPGSV,2,2,07,15,25,206,42,20,60,008,45,29,30,316,45,,,,,0*53
$GNRMC,082516.00,A,3030.1669676,N,11425.7514259,E,0.05,0.00,200524,0.0,E,R,V*4B
$GNGGA,082516.00,3030.1669676,N,11425.7514259,E,5,06,1.0,47.140,M,-13.676,M,0.0,0000*4C
$GPGSA,A,3,05,06,11,13,15,20,29,,,,,,2.4,1.1,2.2,1*25
$GPGSV,2,1,07,05,59,301,45,06,25,098,42,11,56,064,46,13,45,169,46,0*61
$GPGSV,2,2,07,15,25,206,42,20,60,008,45,29,30,316,45,,,,,0*53
$GNRMC,082517.00,A,3030.1669688,N,11425.7514245,E,0.06,0.00,200524,0.0,E,R,V*45
$GNGGA,082517.00,3030.1669688,N,11425.7514245,E,5,06,1.0,47.150,M,-13.676,M,-1.0,0000*6C
$GPGSA,A,3,05,06,11,13,15,20,29,,,,,,2.4,1.1,2.2,1*25
$GPGSV,2,1,07,05,59,301,45,06,25,098,42,11,56,064,46,13,45,169,46,0*61
$GPGSV,2,2,07,15,25,206,42,20,60,008,44,29,30,316,45,,,,,0*52
$GNRMC,082518.00,A,3030.1669719,N,11425.7514246,E,0.03,0.00,200524,0.0,E,R,V*45
$GNGGA,082518.00,3030.1669719,N,11425.7514246,E,5,06,1.0,47.148,M,-13.676,M,0.0,0000*4C
$GPGSA,A,3,05,06,11,13,15,20,29,,,,,,2.4,1.1,2.2,1*25
$GPGSV,2,1,07,05,59,301,45,06,25,098,42,11,56,064,46,13,45,169,46,0*61
$GPGSV,2,2,07,15,25,206,42,20,60,008,45,29,30,316,44,,,,,0*52
$GNRMC,082519.00,A,3030.1669741,N,11425.7514239,E,0.07,0.00,200524,0.0,E,R,V*45
$GNGGA,082519.00,3030.1669741,N,11425.7514239,E,5,06,1.0,47.166,M,-13.676,M,-1.0,0000*68
$GPGSA,A,3,05,06,11,13,15,20,29,,,,,,2.4,1.1,2.2,1*25
$GPGSV,2,1,07,05,59,301,46,06,25,098,41,11,56,064,46,13,45,169,46,0*61
$GPGSV,2,2,07,15,25,206,42,20,60,008,44,29,30,316,44,,,,,0*53
$GNRMC,082520.00,A,3030.1669770,N,11425.7514262,E,0.05,0.00,200524,0.0,E,R,V*41
$GNGGA,082520.00,3030.1669770,N,11425.7514262,E,5,06,1.0,47.170,M,-13.676,M,0.0,0000*45
$GPGSA,A,3,05,06,11,13,15,20,29,,,,,,2.4,1.1,2.2,1*25
$GPGSV,2,1,07,05,59,301,46,06,25,098,42,11,56,064,46,13,45,169,46,0*62
$GPGSV,2,2,07,15,25,206,42,20,60,008,44,29,30,316,45,,,,,0*52
$GNRMC,082521.00,A,3030.1669775,N,11425.7514245,E,0.05,0.00,200524,0.0,E,R,V*40
$GNGGA,082521.00,3030.1669775,N,11425.7514245,E,5,06,1.0,47.184,M,-13.676,M,-1.0,0000*63
$GPGSA,A,3,05,06,11,13,15,20,29,,,,,,2.4,1.1,2.2,1*25
$GPGSV,2,1,07,05,59,301,46,06,25,098,42,11,56,064,46,13,45,169,45,0*61
$GPGSV,2,2,07,15,25,206,42,20,59,008,44,29,30,316,44,,,,,0*59
$GNRMC,082522.00,A,3030.1669811,N,11425.7514277,E,0.10,0.00,200524,0.0,E,R,V*4B
$GNGGA,082522.00,3030.1669811,N,11425.7514277,E,5,06,1.0,47.176,M,-13.676,M,0.0,0000*4D
$GPGSA,A,3,05,06,11,13,15,20,29,,,,,,2.4,1.1,2.2,1*25
$GPGSV,2,1,07,05,59,301,46,06,25,098,42,11,56,064,46,13,45,169,45,0*61
$GPGSV,2,2,07,15,25,206,42,20,59,008,44,29,30,316,44,,,,,0*59
$GNRMC,082523.00,A,3030.1669827,N,11425.7514262,E,0.11,0.00,200524,0.0,E,R,V*4A
$GNGGA,082523.00,3030.1669827,N,11425.7514262,E,5,06,1.0,47.180,M,-13.676,M,0.0,0000*44
$GPGSA,A,3,05,06,11,13,15,20,29,,,,,,2.4,1.1,2.2,1*25
$GPGSV,2,1,07,05,59,301,46,06,25,098,42,11,56,064,46,13,45,169,45,0*61
$GPGSV,2,2,07,15,25,206,42,20,59,008,45,29,30,316,45,,,,,0*59
$GNRMC,082524.00,A,3030.1669857,N,11425.7514264,E,0.13,0.00,200524,0.0,E,R,V*4E
$GNGGA,082524.00,3030.1669857,N,11425.7514264,E,5,06,1.0,47.171,M,-13.676,M,1.0,0000*4D
$GPGSA,A,3,05,06,11,13,15,20,29,,,,,,2.4,1.1,2.2,1*25
$GPGSV,2,1,07,05,59,301,46,06,25,098,41,11,56,064,47,13,45,169,46,0*60
$GPGSV,2,2,07,15,25,206,42,20,59,008,45,29,30,316,44,,,,,0*58
$GNRMC,082525.00,A,3030.1669870,N,11425.7514263,E,0.09,0.00,200524,0.0,E,R,V*46
$GNGGA,082525.00,3030.1669870,N,11425.7514263,E,5,06,1.0,47.168,M,-13.676,M,0.0,0000*47
$GPGSA,A,3,05,06,11,13,15,20,29,,,,,,2.4,1.1,2.2,1*25
$GPGSV,2,1,07,05,59,301,45,06,25,098,41,11,56,064,46,13,45,169,45,0*61
$GPGSV,2,2,07,15,25,206,42,20,59,008,45,29,30,316,45,,,,,0*59
$GNRMC,082526.00,A,3030.1669870,N,11425.7514267,E,0.15,0.00,200524,0.0,E,R,V*4C
$GNGGA,082526.00,3030.1669870,N,11425.7514267,E,5,06,1.0,47.169,M,-13.676,M,1.0,0000*40
$GPGSA,A,3,05,06,11,13,15,20,29,,,,,,2.4,1.1,2.2,1*25
$GPGSV,2,1,07,05,59,301,45,06,25,098,41,11,56,064,46,13,45,169,45,0*61
$GPGSV,2,2,07,15,25,206,42,20,59,008,44,29,30,316,45,,,,,0*58
$GNRMC,082527.00,A,3030.1669877,N,11425.7514256,E,0.10,0.00,200524,0.0,E,R,V*4D
$GNGGA,082527.00,3030.1669877,N,11425.7514256,E,5,06,1.0,47.176,M,-13.676,M,0.0,0000*4B
$GPGSA,A,3,05,06,11,13,15,20,29,,,,,,2.4,1.1,2.2,1*25
$GPGSV,2,1,07,05,59,301,45,06,25,098,41,11,56,064,46,13,45,169,45,0*61
$GPGSV,2,2,07,15,25,206,42,20,59,008,44,29,30,316,44,,,,,0*59
$GNRMC,082528.00,A,3030.1669854,N,11425.7514225,E,0.08,0.00,200524,0.0,E,R,V*4E
$GNGGA,082528.00,3030.1669854,N,11425.7514225,E,5,06,1.0,47.186,M,-13.676,M,-1.0,0000*62
$GPGSA,A,3,05,06,11,13,15,20,29,,,,,,2.4,1.1,2.2,1*25
$GPGSV,2,1,07,05,59,301,45,06,25,098,41,11,56,064,45,13,45,169,45,0*62
$GPGSV,2,2,07,15,25,206,42,20,59,008,44,29,30,316,44,,,,,0*59
$GNRMC,082529.00,A,3030.1669858,N,11425.7514278,E,0.10,0.00,200524,0.0,E,R,V*42
$GNGGA,082529.00,3030.1669858,N,11425.7514278,E,5,06,1.0,47.164,M,-13.676,M,0.0,0000*47
$GPGSA,A,3,05,06,11,13,15,20,29,,,,,,2.4,1.1,2.2,1*25
$GPGSV,2,1,07,05,59,301,45,06,25,098,41,11,56,064,46,13,45,169,45,0*61
$GPGSV,2,2,07,15,25,206,42,20,59,008,44,29,30,316,44,,,,,0*59
$GNRMC,082530.00,A,3030.1669860,N,11425.7514273,E,0.07,0.00,200524,0.0,E,R,V*4C
$GNGGA,082530.00,3030.1669860,N,11425.7514273,E,5,06,1.0,47.164,M,-13.676,M,-1.0,0000*63
$GPGSA,A,3,05,06,11,13,15,20,29,,,,,,2.4,1.1,2.2,1*25
$GPGSV,2,1,07,05,59,301,45,06,25,098,41,11,56,064,46,13,45,169,45,0*61
$GPGSV,2,2,07,15,25,206,42,20,59,008,44,29,30,316,44,,,,,0*59
$GNRMC,082531.00,A,3030.1669866,N,11425.7514306,E,0.06,0.00,200524,0.0,E,R,V*49
$GNGGA,082531.00,3030.1669866,N,11425.7514306,E,5,06,1.0,47.152,M,-13.676,M,0.0,0000*4E
$GPGSA,A,3,05,06,11,13,15,20,29,,,,,,2.4,1.1,2.2,1*25
$GPGSV,2,1,07,05,59,301,45,06,25,098,41,11,56,064,45,13,45,169,45,0*62
$GPGSV,2,2,07,15,25,206,42,20,59,008,44,29,30,316,45,,,,,0*58
$GNRMC,082532.00,A,3030.1669838,N,11425.7514313,E,0.13,0.00,200524,0.0,E,R,V*41
$GNGGA,082532.00,3030.1669838,N,11425.7514313,E,5,06,1.0,47.147,M,-13.676,M,-1.0,0000*6A
$GPGSA,A,3,05,06,11,13,15,20,29,,,,,,2.4,1.1,2.2,1*25
$GPGSV,2,1,07,05,59,301,45,06,25,098,41,11,56,064,45,13,45,169,45,0*62
$GPGSV,2,2,07,15,25,206,42,20,59,008,44,29,30,316,45,,,,,0*58
$GNRMC,082533.00,A,3030.1669860,N,11425.7514332,E,0.10,0.00,200524,0.0,E,R,V*4D
$GNGGA,082533.00,3030.1669860,N,11425.7514332,E,5,06,1.0,47.136,M,-13.676,M,0.0,0000*4F
$GPGSA,A,3,05,06,11,13,15,20,29,,,,,,2.4,1.1,2.2,1*25
$GPGSV,2,1,07,05,59,301,45,06,25,098,42,11,56,064,46,13,45,169,45,0*62
$GPGSV,2,2,07,15,25,206,42,20,59,008,44,29,30,316,45,,,,,0*58
$GNRMC,082534.00,A,3030.1669785,N,11425.7514313,E,0.06,0.00,200524,0.0,E,R,V*4A
$GNGGA,082534.00,3030.1669785,N,11425.7514313,E,5,06,1.0,47.135,M,-13.676,M,-1.0,0000*60
$GPGSA,A,3,05,06,11,13,15,20,29,,,,,,2.4,1.1,2.2,1*25
$GPGSV,2,1,07,05,59,301,45,06,25,098,41,11,56,064,45,13,45,169,45,0*62
$GPGSV,2,2,07,15,25,206,42,20,59,008,44,29,30,316,44,,,,,0*59
$GNRMC,082535.00,A,3030.1669813,N,11425.7514331,E,0.08,0.00,200524,0.0,E,R,V*45
$GNGGA,082535.00,3030.1669813,N,11425.7514331,E,5,06,1.0,47.126,M,-13.676,M,0.0,0000*4F
$GPGSA,A,3,05,06,11,13,15,20,29,,,,,,2.4,1.1,2.2,1*25
$GPGSV,2,1,07,05,59,301,45,06,25,098,41,11,56,064,46,13,45,169,45,0*61
$GPGSV,2,2,07,15,25,206,42,20,59,008,44,29,30,316,44,,,,,0*59
$GNRMC,082536.00,A,3030.1669636,N,11425.7514277,E,0.03,0.00,200524,0.0,E,R,V*47
$GNGGA,082536.00,3030.1669636,N,11425.7514277,E,5,06,1.0,47.141,M,-13.676,M,0.0,0000*47
$GPGSA,A,3,05,06,11,13,15,20,29,,,,,,2.4,1.1,2.2,1*25
$GPGSV,2,1,07,05,59,301,45,06,25,098,41,11,56,064,46,13,45,169,45,0*61
$GPGSV,2,2,07,15,25,206,42,20,59,008,44,29,30,316,45,,,,,0*58
$GNRMC,082537.00,A,3030.1669676,N,11425.7514329,E,0.18,0.00,200524,0.0,E,R,V*42
$GNGGA,082537.00,3030.1669676,N,11425.7514329,E,5,06,1.0,47.137,M,-13.676,M,1.0,0000*48
$GPGSA,A,3,05,06,11,13,15,20,29,,,,,,2.4,1.1,2.2,1*25
$GPGSV,2,1,07,05,59,301,45,06,25,098,42,11,56,064,47,13,45,169,45,0*63
$GPGSV,2,2,07,15,25,206,42,20,59,008,44,29,30,316,44,,,,,0*59
$GNRMC,082538.00,A,3030.1669652,N,11425.7514328,E,0.08,0.00,200524,0.0,E,R,V*4B
$GNGGA,082538.00,3030.1669652,N,11425.7514328,E,5,06,1.0,47.147,M,-13.676,M,0.0,0000*46
$GPGSA,A,3,05,06,11,13,15,20,29,,,,,,2.4,1.1,2.2,1*25
$GPGSV,2,1,07,05,59,301,46,06,25,098,42,11,56,064,47,13,45,169,45,0*60
$GPGSV,2,2,07,15,25,206,42,20,59,008,44,29,30,316,45,,,,,0*58
$GNRMC,082539.00,A,3030.1669618,N,11425.7514322,E,0.11,0.00,200524,0.0,E,R,V*46
$GNGGA,082539.00,3030.1669618,N,11425.7514322,E,5,06,1.0,47.165,M,-13.676,M,-1.0,0000*6F
$GPGSA,A,3,05,06,11,13,15,20,29,,,,,,2.4,1.1,2.2,1*25
$GPGSV,2,1,07,05,59,302,46,06,25,098,41,11,56,064,46,13,45,169,45,0*61
$GPGSV,2,2,07,15,25,206,42,20,59,008,44,29,30,316,44,,,,,0*59
$GNRMC,082540.00,A,3030.1669623,N,11425.7514358,E,0.10,0.00,200524,0.0,E,R,V*4C
$GNGGA,082540.00,3030.1669623,N,11425.7514358,E,5,06,1.0,47.161,M,-13.676,M,0.0,0000*4C
$GPGSA,A,3,05,06,11,13,15,20,29,,,,,,2.4,1.1,2.2,1*25
$GPGSV,2,1,07,05,59,302,46,06,25,098,41,11,56,064,46,13,45,169,45,0*61
$GPGSV,2,2,07,15,25,206,42,20,59,008,44,29,30,316,44,,,,,0*59
$GNRMC,082541.00,A,3030.1669739,N,11425.7514403,E,0.06,0.00,200524,0.0,E,R,V*49
$GNGGA,082541.00,3030.1669739,N,11425.7514403,E,5,06,1.0,47.161,M,-13.676,M,0.0,0000*4E
$GPGSA,A,3,05,06,11,13,15,20,29,,,,,,2.4,1.1,2.2,1*25
$GPGSV,2,1,07,05,59,302,46,06,25,098,41,11,56,064,46,13,45,169,45,0*61
$GPGSV,2,2,07,15,25,206,42,20,59,008,45,29,30,316,44,,,,,0*58
$GNRMC,082542.00,A,3030.1669710,N,11425.7514390,E,0.06,0.00,200524,0.0,E,R,V*4C
$GNGGA,082542.00,3030.1669710,N,11425.7514390,E,5,06,1.0,47.160,M,-13.676,M,-1.0,0000*66
$GPGSA,A,3,05,06,11,13,15,20,29,,,,,,2.4,1.1,2.2,1*25
$GPGSV,2,1,07,05,59,302,45,06,25,098,42,11,56,064,47,13,45,169,45,0*60
$GPGSV,2,2,07,15,25,206,42,20,59,008,44,29,30,316,44,,,,,0*59
$GNRMC,082543.00,A,3030.1669748,N,11425.7514444,E,0.17,0.00,200524,0.0,E,R,V*4E
$GNGGA,082543.00,3030.1669748,N,11425.7514444,E,5,06,1.0,47.155,M,-13.676,M,0.0,0000*4E
$GPGSA,A,3,05,06,11,13,20,29,,,,,,,2.8,1.4,2.4,1*2E
$GPGSV,2,1,06,05,59,302,45,06,25,098,42,11,56,064,45,13,45,169,45,0*63
$GPGSV,2,2,06,20,59,008,44,29,30,316,44,,,,,,,,,0*69
$GNRMC,082544.00,A,3030.1669726,N,11425.7514404,E,0.05,0.00,200524,0.0,E,R,V*46
$GNGGA,082544.00,3030.1669726,N,11425.7514404,E,5,06,1.0,47.161,M,-13.676,M,-1.0,0000*6E
$GPGSA,A,3,05,06,11,13,20,29,,,,,,,2.8,1.4,2.4,1*2E
$GPGSV,2,1,06,05,59,302,45,06,25,098,42,11,56,064,45,13,45,169,46,0*60
$GPGSV,2,2,06,20,59,008,44,29,30,316,44,,,,,,,,,0*69
$GNRMC,082545.00,A,3030.1669763,N,11425.7514461,E,0.08,0.00,200524,0.0,E,R,V*48
$GNGGA,082545.00,3030.1669763,N,11425.7514461,E,5,06,1.0,47.155,M,-13.676,M,0.0,0000*46
$GPGSA,A,3,05,06,11,13,20,29,,,,,,,2.8,1.4,2.4,1*2E
$GPGSV,2,1,06,05,59,302,45,06,25,098,42,11,56,064,45,13,46,169,46,0*63
$GPGSV,2,2,06,20,59,008,44,29,30,316,44,,,,,,,,,0*69
$GNRMC,082546.00,A,3030.1669776,N,11425.7514446,E,0.07,0.00,200524,0.0,E,R,V*45
$GNGGA,082546.00,3030.1669776,N,11425.7514446,E,5,06,1.0,47.162,M,-13.676,M,-1.0,0000*6C
$GPGSA,A,3,05,06,11,13,20,29,,,,,,,2.8,1.4,2.4,1*2E
$GPGSV,2,1,06,05,59,302,45,06,25,098,41,11,56,064,45,13,46,169,45,0*63
$GPGSV,2,2,06,20,59,008,44,29,30,316,44,,,,,,,,,0*69
$GNRMC,082547.00,A,3030.1669815,N,11425.7514472,E,0.09,0.00,200524,0.0,E,R,V*47
$GNGGA,082547.00,3030.1669815,N,11425.7514472,E,5,06,1.0,47.144,M,-13.676,M,0.0,0000*48
$GPGSA,A,3,05,06,11,13,20,29,,,,,,,2.8,1.4,2.4,1*2E
$GPGSV,2,1,06,05,59,302,45,06,25,098,41,11,56,064,45,13,46,169,46,0*60
$GPGSV,2,2,06,20,59,008,45,29,30,316,44,,,,,,,,,0*68
$GNRMC,082548.00,A,3030.1669821,N,11425.7514481,E,0.08,0.00,200524,0.0,E,R,V*42
$GNGGA,082548.00,3030.1669821,N,11425.7514481,E,5,06,1.0,47.142,M,-13.676,M,0.0,0000*4A
$GPGSA,A,3,05,06,11,13,20,29,,,,,,,2.8,1.4,2.4,1*2E
$GPGSV,2,1,06,05,59,302,45,06,25,098,41,11,56,064,46,13,46,169,46,0*63
$GPGSV,2,2,06,20,59,008,44,29,30,316,44,,,,,,,,,0*69
$GNRMC,082549.00,A,3030.1669846,N,11425.7514500,E,0.08,0.00,200524,0.0,E,R,V*4A
$GNGGA,082549.00,3030.1669846,N,11425.7514500,E,5,06,1.0,47.139,M,-13.676,M,1.0,0000*4F
$GPGSA,A,3,05,06,11,13,20,29,,,,,,,2.8,1.4,2.4,1*2E
$GPGSV,2,1,06,05,59,302,45,06,25,098,41,11,56,064,46,13,46,169,46,0*63
$GPGSV,2,2,06,20,59,008,44,29,30,316,44,,,,,,,,,0*69
$GNRMC,082550.00,A,3030.1669897,N,11425.7514509,E,0.10,0.00,200524,0.0,E,R,V*4E
$GNGGA,082550.00,3030.1669897,N,11425.7514509,E,5,06,1.0,47.132,M,-13.676,M,0.0,0000*48
$GPGSA,A,3,05,06,11,13,20,29,,,,,,,2.8,1.4,2.4,1*2E
$GPGSV,2,1,06,05,59,302,45,06,25,098,42,11,56,064,46,13,46,169,45,0*63
$GPGSV,2,2,06,20,59,008,44,29,30,316,44,,,,,,,,,0*69
$GNRMC,082551.00,A,3030.1669939,N,11425.7514538,E,0.08,0.00,200524,0.0,E,R,V*41
$GNGGA,082551.00,3030.1669939,N,11425.7514538,E,5,06,1.0,47.123,M,-13.676,M,1.0,0000*4F
$GPGSA,A,3,05,06,11,13,20,29,,,,,,,2.8,1.4,2.4,1*2E
$GPGSV,2,1,06,05,59,302,45,06,25,098,42,11,56,064,46,13,46,169,45,0*63
$GPGSV,2,2,06,20,59,008,44,29,30,316,44,,,,,,,,,0*69
$GNRMC,082552.00,A,3030.1669917,N,11425.7514507,E,0.04,0.00,200524,0.0,E,R,V*4E
$GNGGA,082552.00,3030.1669917,N,11425.7514507,E,5,06,1.0,47.126,M,-13.676,M,0.0,0000*48
$GPGSA,A,3,05,06,11,13,20,29,,,,,,,2.8,1.4,2.4,1*2E
$GPGSV,2,1,06,05,59,302,45,06,25,098,42,11,56,064,45,13,46,169,46,0*63
$GPGSV,2,2,06,20,59,008,44,29,30,316,44,,,,,,,,,0*69
$GNRMC,082553.00,A,3030.1669904,N,11425.7514495,E,0.07,0.00,200524,0.0,E,R,V*44
$GNGGA,082553.00,3030.1669904,N,11425.7514495,E,5,06,1.0,47.134,M,-13.676,M,-1.0,0000*6E
$GPGSA,A,3,05,06,11,13,20,29,,,,,,,2.8,1.4,2.4,1*2E
$GPGSV,2,1,06,05,59,302,45,06,25,098,41,11,56,064,46,13,46,169,45,0*60
$GPGSV,2,2,06,20,59,008,44,29,30,316,44,,,,,,,,,0*69
$GNRMC,082554.00,A,3030.1669935,N,11425.7514502,E,0.29,0.00,200524,0.0,E,R,V*42
$GNGGA,082554.00,3030.1669935,N,11425.7514502,E,5,06,1.0,47.146,M,-13.676,M,0.0,0000*4D
$GPGSA,A,3,05,06,11,13,20,29,,,,,,,2.8,1.4,2.4,1*2E
$GPGSV,2,1,06,05,59,302,45,06,25,098,41,11,56,064,46,13,46,169,45,0*60
$GPGSV,2,2,06,20,59,008,44,29,30,316,45,,,,,,,,,0*68
$GNRMC,082555.00,A,3030.1669932,N,11425.7514500,E,0.26,0.00,200524,0.0,E,R,V*49
$GNGGA,082555.00,3030.1669932,N,11425.7514500,E,5,06,1.0,47.131,M,-13.676,M,-1.0,0000*65
$GPGSA,A,3,05,06,11,13,20,29,,,,,,,2.8,1.4,2.4,1*2E
$GPGSV,2,1,06,05,59,302,45,06,25,098,41,11,56,064,46,13,46,169,45,0*60
$GPGSV,2,2,06,20,59,008,44,29,30,316,45,,,,,,,,,0*68
$GNRMC,082556.00,A,3030.1669971,N,11425.7514521,E,0.09,0.00,200524,0.0,E,R,V*43
$GNGGA,082556.00,3030.1669971,N,11425.7514521,E,5,06,1.0,47.125,M,-13.676,M,0.0,0000*4B
$GPGSA,A,3,05,06,11,13,20,29,,,,,,,2.8,1.4,2.4,1*2E
$GPGSV,2,1,06,05,59,302,45,06,25,098,41,11,56,064,46,13,46,169,45,0*60
$GPGSV,2,2,06,20,59,008,44,29,30,316,44,,,,,,,,,0*69
$GNRMC,082557.00,A,3030.1669950,N,11425.7514518,E,0.13,0.00,200524,0.0,E,R,V*40
$GNGGA,082557.00,3030.1669950,N,11425.7514518,E,5,06,1.0,47.114,M,-13.676,M,-1.0,0000*6D
$GPGSA,A,3,05,06,11,13,20,29,,,,,,,2.8,1.4,2.4,1*2E
$GPGSV,2,1,06,05,59,302,45,06,25,098,41,11,56,064,46,13,46,169,45,0*60
$GPGSV,2,2,06,20,59,008,44,29,30,316,44,,,,,,,,,0*69
$GNRMC,082558.00,A,3030.1669988,N,11425.7514523,E,0.09,0.00,200524,0.0,E,R,V*49
$GNGGA,082558.00,3030.1669988,N,11425.7514523,E,5,06,1.0,47.122,M,-13.676,M,0.0,0000*46
$GPGSA,A,3,05,06,11,13,20,29,,,,,,,2.8,1.4,2.4,1*2E
$GPGSV,2,1,06,05,59,302,45,06,25,098,41,11,56,064,46,13,46,169,45,0*60
$GPGSV,2,2,06,20,59,008,44,29,30,316,44,,,,,,,,,0*69
$GNRMC,082559.00,A,3030.1669965,N,11425.7514509,E,0.12,0.00,200524,0.0,E,R,V*49
$GNGGA,082559.00,3030.1669965,N,11425.7514509,E,5,06,1.0,47.128,M,-13.676,M,-1.0,0000*6A
$GPGSA,A,3,05,06,11,13,20,29,,,,,,,2.8,1.4,2.4,1*2E
$GPGSV,2,1,06,05,59,302,45,06,25,098,41,11,56,064,46,13,46,169,45,0*60
$GPGSV,2,2,06,20,59,008,44,29,30,316,44,,,,,,,,,0*69
$GNRMC,082600.00,A,3030.1670020,N,11425.7514540,E,0.12,0.00,200524,0.0,E,R,V*4B
$GNGGA,082600.00,3030.1670020,N,11425.7514540,E,5,06,1.0,47.132,M,-13.676,M,0.0,0000*4F
$GPGSA,A,3,05,06,11,13,20,29,,,,,,,2.8,1.4,2.4,1*2E
$GPGSV,2,1,06,05,59,302,45,06,25,098,41,11,56,064,45,13,46,169,45,0*63
$GPGSV,2,2,06,20,59,008,44,29,30,316,44,,,,,,,,,0*69
$GNRMC,082601.00,A,3030.1670005,N,11425.7514546,E,0.05,0.00,200524,0.0,E,R,V*4D
$GNGGA,082601.00,3030.1670005,N,11425.7514546,E,5,06,1.0,47.125,M,-13.676,M,-1.0,0000*65
$GPGSA,A,3,05,06,11,13,20,29,,,,,,,2.8,1.4,2.4,1*2E
$GPGSV,2,1,06,05,59,302,45,06,25,098,41,11,56,064,46,13,46,169,45,0*60
$GPGSV,2,2,06,20,59,008,44,29,30,316,44,,,,,,,,,0*69
$GNRMC,082602.00,A,3030.1670046,N,11425.7514580,E,0.13,0.00,200524,0.0,E,R,V*44
$GNGGA,082602.00,3030.1670046,N,11425.7514580,E,5,06,1.0,47.119,M,-13.676,M,0.0,0000*48
$GPGSA,A,3,05,06,11,13,20,29,,,,,,,2.8,1.4,2.4,1*2E
$GPGSV,2,1,06,05,59,302,45,06,25,098,41,11,56,064,46,13,46,169,45,0*60
$GPGSV,2,2,06,20,59,008,44,29,30,316,44,,,,,,,,,0*69
$GNRMC,082603.00,A,3030.1670082,N,11425.7514585,E,0.12,0.00,200524,0.0,E,R,V*49
$GNGGA,082603.00,3030.1670082,N,11425.7514585,E,5,06,1.0,47.122,M,-13.676,M,0.0,0000*4C
$GPGSA,A,3,05,06,11,13,20,29,,,,,,,2.8,1.4,2.4,1*2E
$GPGSV,2,1,06,05,59,302,45,06,25,098,41,11,56,064,45,13,46,169,45,0*63
$GPGSV,2,2,06,20,59,009,44,29,30,316,44,,,,,,,,,0*68
$GNRMC,082604.00,A,3030.1670124,N,11425.7514608,E,0.16,0.00,200524,0.0,E,R,V*41
$GNGGA,082604.00,3030.1670124,N,11425.7514608,E,5,06,1.0,47.112,M,-13.676,M,1.0,0000*42
$GPGSA,A,3,05,06,11,13,20,29,,,,,,,2.8,1.4,2.4,1*2E
$GPGSV,2,1,06,05,59,302,45,06,25,098,41,11,56,064,45,13,46,169,45,0*63
$GPGSV,2,2,06,20,59,009,43,29,30,316,44,,,,,,,,,0*6F
$GNRMC,082605.00,A,3030.1670095,N,11425.7514594,E,0.06,0.00,200524,0.0,E,R,V*4C
$GNGGA,082605.00,3030.1670095,N,11425.7514594,E,5,06,1.0,47.115,M,-13.676,M,0.0,0000*48
$GPGSA,A,3,05,06,11,13,20,29,,,,,,,2.8,1.4,2.4,1*2E
$GPGSV,2,1,06,05,59,302,45,06,25,098,41,11,56,064,45,13,46,169,45,0*63
$GPGSV,2,2,06,20,59,009,44,29,30,316,44,,,,,,,,,0*68
$GNRMC,082606.00,A,3030.1670142,N,11425.7514625,E,0.08,0.00,200524,0.0,E,R,V*43
$GNGGA,082606.00,3030.1670142,N,11425.7514625,E,5,06,1.0,47.114,M,-13.676,M,1.0,0000*49
$GPGSA,A,3,05,06,11,13,20,29,,,,,,,2.8,1.4,2.4,1*2E
$GPGSV,2,1,06,05,59,302,45,06,25,098,41,11,56,064,45,13,46,169,45,0*63
$GPGSV,2,2,06,20,59,009,44,29,30,316,44,,,,,,,,,0*68
$GNRMC,082607.00,A,3030.1670118,N,11425.7514605,E,0.05,0.00,200524,0.0,E,R,V*42
$GNGGA,082607.00,3030.1670118,N,11425.7514605,E,5,06,1.0,47.112,M,-13.676,M,0.0,0000*42
$GPGSA,A,3,05,06,11,13,20,29,,,,,,,2.8,1.4,2.4,1*2E
$GPGSV,2,1,06,05,59,302,45,06,25,098,42,11,56,064,45,13,46,169,45,0*60
$GPGSV,2,2,06,20,59,009,44,29,30,316,45,,,,,,,,,0*69
$GNRMC,082608.00,A,3030.1670077,N,11425.7514578,E,0.06,0.00,200524,0.0,E,R,V*4F
$GNGGA,082608.00,3030.1670077,N,11425.7514578,E,5,06,1.0,47.130,M,-13.676,M,-1.0,0000*60
$GPGSA,A,3,05,06,11,13,20,29,,,,,,,2.8,1.4,2.4,1*2E
$GPGSV,2,1,06,05,59,302,45,06,25,098,41,11,56,064,44,13,46,169,43,0*64
$GPGSV,2,2,06,20,59,009,44,29,30,316,44,,,,,,,,,0*68
$GNRMC,082609.00,A,3030.1670108,N,11425.7514613,E,0.05,0.00,200524,0.0,E,R,V*4A
$GNGGA,082609.00,3030.1670108,N,11425.7514613,E,5,06,1.0,47.120,M,-13.676,M,0.0,0000*4B
$GPGSA,A,3,05,06,11,13,20,29,,,,,,,2.8,1.4,2.4,1*2E
$GPGSV,2,1,06,05,59,302,44,06,25,098,42,11,56,064,45,13,46,169,45,0*61
$GPGSV,2,2,06,20,59,009,44,29,30,316,44,,,,,,,,,0*68
$GNRMC,082610.00,A,3030.1670065,N,11425.7514583,E,0.13,0.00,200524,0.0,E,R,V*45
$GNGGA,082610.00,3030.1670065,N,11425.7514583,E,5,06,1.0,47.125,M,-13.676,M,-1.0,0000*6A
$GPGSA,A,3,05,06,11,13,20,29,,,,,,,2.8,1.4,2.4,1*2E
$GPGSV,2,1,06,05,59,302,44,06,25,098,41,11,56,064,45,13,46,169,45,0*62
$GPGSV,2,2,06,20,59,009,44,29,30,316,44,,,,,,,,,0*68
$GNRMC,082611.00,A,3030.1670060,N,11425.7514581,E,0.04,0.00,200524,0.0,E,R,V*45
$GNGGA,082611.00,3030.1670060,N,11425.7514581,E,5,06,1.0,47.126,M,-13.676,M,0.0,0000*43
$GPGSA,A,3,05,06,11,13,20,29,,,,,,,2.8,1.4,2.4,1*2E
$GPGSV,2,1,06,05,59,302,45,06,25,098,41,11,56,064,46,13,46,169,45,0*60
$GPGSV,2,2,06,20,59,009,44,29,30,316,45,,,,,,,,,0*69
$GNRMC,082612.00,A,3030.1670029,N,11425.7514574,E,0.04,0.00,200524,0.0,E,R,V*41
$GNGGA,082612.00,3030.1670029,N,11425.7514574,E,5,06,1.0,47.123,M,-13.676,M,-1.0,0000*6E
$GPGSA,A,3,05,06,11,13,20,29,,,,,,,2.8,1.4,2.4,1*2E
$GPGSV,2,1,06,05,59,302,45,06,25,099,41,11,56,064,45,13,46,169,45,0*62
$GPGSV,2,2,06,20,59,009,45,29,30,316,45,,,,,,,,,0*68
$GNRMC,082613.00,A,3030.1670027,N,11425.7514603,E,0.05,0.00,200524,0.0,E,R,V*4C
$GNGGA,082613.00,3030.1670027,N,11425.7514603,E,5,06,1.0,47.116,M,-13.676,M,0.0,0000*48
$GPGSA,A,3,05,06,11,13,20,29,,,,,,,2.8,1.4,2.4,1*2E
$GPGSV,2,1,06,05,59,302,45,06,25,099,41,11,56,064,45,13,46,169,45,0*62
$GPGSV,2,2,06,20,59,009,44,29,30,316,44,,,,,,,,,0*68
$GNRMC,082614.00,A,3030.1670008,N,11425.7514584,E,0.28,0.00,200524,0.0,E,R,V*45
$GNGGA,082614.00,3030.1670008,N,11425.7514584,E,5,06,1.0,47.122,M,-13.676,M,0.0,0000*49
$GPGSA,A,3,05,06,11,13,20,29,,,,,,,2.8,1.4,2.4,1*2E
$GPGSV,2,1,06,05,59,302,45,06,25,099,42,11,56,064,46,13,46,169,46,0*61
$GPGSV,2,2,06,20,59,009,44,29,30,316,45,,,,,,,,,0*69
$GNRMC,082615.00,A,3030.1670015,N,11425.7514617,E,0.08,0.00,200524,0.0,E,R,V*43
$GNGGA,082615.00,3030.1670015,N,11425.7514617,E,5,06,1.0,47.120,M,-13.676,M,1.0,0000*4E
$GPGSA,A,3,05,06,11,13,20,29,,,,,,,2.8,1.4,2.4,1*2E
$GPGSV,2,1,06,05,59,302,45,06,25,099,42,11,56,064,46,13,46,169,45,0*62
$GPGSV,2,2,06,20,59,009,44,29,30,315,45,,,,,,,,,0*6A
$GNRMC,082616.00,A,3030.1669943,N,11425.7514555,E,0.04,0.00,200524,0.0,E,R,V*4B
$GNGGA,082616.00,3030.1669943,N,11425.7514555,E,5,06,1.0,47.123,M,-13.676,M,-1.0,0000*64
$GPGSA,A,3,05,06,11,13,20,29,,,,,,,2.8,1.4,2.4,1*2E
$GPGSV,2,1,06,05,59,302,45,06,25,099,41,11,56,064,46,13,46,169,45,0*61
$GPGSV,2,2,06,20,59,009,44,29,30,315,45,,,,,,,,,0*6A
$GNRMC,082617.00,A,3030.1669945,N,11425.7514587,E,0.09,0.00,200524,0.0,E,R,V*4E
$GNGGA,082617.00,3030.1669945,N,11425.7514587,E,5,06,1.0,47.122,M,-13.676,M,0.0,0000*41
$GPGSA,A,3,05,06,11,13,20,29,,,,,,,2.8,1.4,2.4,1*2E
$GPGSV,2,1,06,05,59,302,45,06,25,099,41,11,56,064,45,13,46,169,45,0*62
$GPGSV,2,2,06,20,59,009,44,29,30,315,45,,,,,,,,,0*6A
$GNRMC,082618.00,A,3030.1669943,N,11425.7514571,E,0.06,0.00,200524,0.0,E,R,V*41
$GNGGA,082618.00,3030.1669943,N,11425.7514571,E,5,06,1.0,47.124,M,-13.676,M,0.0,0000*47
$GPGSA,A,3,05,06,11,13,20,29,,,,,,,2.8,1.4,2.4,1*2E
$GPGSV,2,1,06,05,59,302,45,06,25,099,41,11,56,064,45,13,46,169,46,0*61
$GPGSV,2,2,06,20,59,009,44,29,30,315,45,,,,,,,,,0*6A
$GNRMC,082619.00,A,3030.1669938,N,11425.7514588,E,0.15,0.00,200524,0.0,E,R,V*48
$GNGGA,082619.00,3030.1669938,N,11425.7514588,E,5,06,1.0,47.122,M,-13.676,M,1.0,0000*4B
$GPGSA,A,3,05,06,11,13,20,29,,,,,,,2.8,1.4,2.4,1*2E
$GPGSV,2,1,06,05,59,302,45,06,25,099,41,11,56,064,45,13,46,169,45,0*62
$GPGSV,2,2,06,20,59,009,44,29,30,315,45,,,,,,,,,0*6A
$GNRMC,082620.00,A,3030.1669884,N,11425.7514569,E,0.11,0.00,200524,0.0,E,R,V*4F
$GNGGA,082620.00,3030.1669884,N,11425.7514569,E,5,06,1.0,47.133,M,-13.676,M,0.0,0000*49
$GPGSA,A,3,05,06,11,13,20,29,,,,,,,2.8,1.4,2.4,1*2E
$GPGSV,2,1,06,05,59,302,45,06,25,099,41,11,56,065,46,13,46,169,45,0*60
$GPGSV,2,2,06,20,59,009,44,29,30,315,45,,,,,,,,,0*6A
$GNRMC,082621.00,A,3030.1669881,N,11425.7514549,E,0.08,0.00,200524,0.0,E,R,V*41
$GNGGA,082621.00,3030.1669881,N,11425.7514549,E,5,06,1.0,47.125,M,-13.676,M,-1.0,0000*64
$GPGSA,A,3,05,06,11,13,20,29,,,,,,,2.8,1.4,2.4,1*2E
$GPGSV,2,1,06,05,59,302,45,06,25,099,41,11,56,065,45,13,46,169,45,0*63
$GPGSV,2,2,06,20,59,009,45,29,30,315,45,,,,,,,,,0*6B
$GNRMC,082622.00,A,3030.1669894,N,11425.7514566,E,0.06,0.00,200524,0.0,E,R,V*45
$GNGGA,082622.00,3030.1669894,N,11425.7514566,E,5,06,1.0,47.126,M,-13.676,M,0.0,0000*41
$GPGSA,A,3,05,06,11,13,20,29,,,,,,,2.8,1.4,2.4,1*2E
$GPGSV,2,1,06,05,59,302,45,06,25,099,41,11,56,065,46,13,46,169,45,0*60
$GPGSV,2,2,06,20,59,009,44,29,30,315,45,,,,,,,,,0*6A
$GNRMC,082623.00,A,3030.1669848,N,11425.7514530,E,0.09,0.00,200524,0.0,E,R,V*49
$GNGGA,082623.00,3030.1669848,N,11425.7514530,E,5,06,1.0,47.150,M,-13.676,M,-1.0,0000*6F
$GPGSA,A,3,05,06,11,13,20,29,,,,,,,2.8,1.4,2.4,1*2E
$GPGSV,2,1,06,05,59,302,46,06,25,099,41,11,56,065,45,13,46,169,46,0*63
$GPGSV,2,2,06,20,59,009,44,29,30,315,45,,,,,,,,,0*6A
$GNRMC,082624.00,A,3030.1669853,N,11425.7514541,E,0.08,0.00,200524,0.0,E,R,V*43
$GNGGA,082624.00,3030.1669853,N,11425.7514541,E,5,06,1.0,47.151,M,-13.676,M,0.0,0000*49
$GPGSA,A,3,05,06,11,13,20,29,,,,,,,2.8,1.4,2.4,1*2E
$GPGSV,2,1,06,05,59,302,45,06,25,099,42,11,56,065,46,13,46,169,45,0*63
$GPGSV,2,2,06,20,59,009,44,29,30,315,45,,,,,,,,,0*6A
$GNRMC,082625.00,A,3030.1669834,N,11425.7514516,E,0.05,0.00,200524,0.0,E,R,V*4C
$GNGGA,082625.00,3030.1669834,N,11425.7514516,E,5,06,1.0,47.163,M,-13.676,M,-1.0,0000*66
$GPGSA,A,3,05,06,11,13,20,29,,,,,,,2.8,1.4,2.4,1*2E
$GPGSV,2,1,06,05,59,302,45,06,25,099,41,11,56,065,45,13,46,169,46,0*60
$GPGSV,2,2,06,20,59,009,44,29,30,315,45,,,,,,,,,0*6A
$GNRMC,082626.00,A,3030.1669852,N,11425.7514540,E,0.24,0.00,200524,0.0,E,R,V*4F
$GNGGA,082626.00,3030.1669852,N,11425.7514540,E,5,06,1.0,47.170,M,-13.676,M,0.0,0000*48
$GPGSA,A,3,05,06,11,13,20,29,,,,,,,2.8,1.4,2.4,1*2E
$GPGSV,2,1,06,05,59,302,45,06,25,099,41,11,56,065,46,13,46,169,45,0*60
$GPGSV,2,2,06,20,59,009,44,29,30,315,45,,,,,,,,,0*6A
$GNRMC,082627.00,A,3030.1669855,N,11425.7514521,E,0.17,0.00,200524,0.0,E,R,V*4E
$GNGGA,082627.00,3030.1669855,N,11425.7514521,E,5,06,1.0,47.159,M,-13.676,M,0.0,0000*42
$GPGSA,A,3,05,06,11,13,20,29,,,,,,,2.8,1.4,2.4,1*2E
$GPGSV,2,1,06,05,59,302,45,06,25,099,41,11,56,065,46,13,46,169,45,0*60
$GPGSV,2,2,06,20,59,009,45,29,30,315,45,,,,,,,,,0*6B
$GNRMC,082628.00,A,3030.1669886,N,11425.7514554,E,0.07,0.00,200524,0.0,E,R,V*4C
$GNGGA,082628.00,3030.1669886,N,11425.7514554,E,5,06,1.0,47.152,M,-13.676,M,1.0,0000*4B
$GPGSA,A,3,05,06,11,13,20,29,,,,,,,2.8,1.4,2.4,1*2E
$GPGSV,2,1,06,05,59,302,45,06,25,099,42,11,56,065,45,13,46,169,46,0*63
$GPGSV,2,2,06,20,59,009,44,29,30,315,45,,,,,,,,,0*6A
$GNRMC,082629.00,A,3030.1669860,N,11425.7514517,E,0.14,0.00,200524,0.0,E,R,V*40
$GNGGA,082629.00,3030.1669860,N,11425.7514517,E,5,06,1.0,47.162,M,-13.676,M,0.0,0000*47
$GPGSA,A,3,05,06,11,13,20,29,,,,,,,2.8,1.4,2.4,1*2E
$GPGSV,2,1,06,05,59,302,45,06,25,099,42,11,56,065,45,13,46,169,45,0*60
$GPGSV,2,2,06,20,59,009,44,29,30,315,45,,,,,,,,,0*6A
$GNRMC,082630.00,A,3030.1669879,N,11425.7514512,E,0.07,0.00,200524,0.0,E,R,V*47
$GNGGA,082630.00,3030.1669879,N,11425.7514512,E,5,06,1.0,47.157,M,-13.676,M,1.0,0000*45
$GPGSA,A,3,05,06,11,13,20,29,,,,,,,2.8,1.4,2.4,1*2E
$GPGSV,2,1,06,05,59,302,45,06,25,099,41,11,56,065,45,13,46,169,45,0*63
$GPGSV,2,2,06,20,59,009,44,29,30,315,45,,,,,,,,,0*6A
$GNRMC,082631.00,A,3030.1669858,N,11425.7514470,E,0.05,0.00,200524,0.0,E,R,V*42
$GNGGA,082631.00,3030.1669858,N,11425.7514470,E,5,06,1.0,47.158,M,-13.676,M,0.0,0000*4C
$GPGSA,A,3,05,06,11,13,20,29,,,,,,,2.8,1.4,2.4,1*2E
$GPGSV,2,1,06,05,59,302,45,06,25,099,41,11,56,065,45,13,46,169,46,0*60
$GPGSV,2,2,06,20,59,009,44,29,30,315,45,,,,,,,,,0*6A
$GNRMC,082632.00,A,3030.1669849,N,11425.7514445,E,0.12,0.00,200524,0.0,E,R,V*41
$GNGGA,082632.00,3030.1669849,N,11425.7514445,E,5,06,1.0,47.164,M,-13.676,M,-1.0,0000*6A
$GPGSA,A,3,05,06,11,13,20,29,,,,,,,2.8,1.4,2.4,1*2E
$GPGSV,2,1,06,05,59,302,45,06,25,099,41,11,56,065,45,13,46,169,45,0*63
$GPGSV,2,2,06,20,59,009,44,29,30,315,45,,,,,,,,,0*6A
$GNRMC,082633.00,A,3030.1669837,N,11425.7514437,E,0.11,0.00,200524,0.0,E,R,V*4F
$GNGGA,082633.00,3030.1669837,N,11425.7514437,E,5,06,1.0,47.160,M,-13.676,M,-1.0,0000*63
$GPGSA,A,3,05,06,11,13,20,29,,,,,,,2.8,1.4,2.4,1*2E
$GPGSV,2,1,06,05,59,302,45,06,25,099,41,11,56,065,46,13,46,169,45,0*60
$GPGSV,2,2,06,20,59,009,44,29,30,315,45,,,,,,,,,0*6A
$GNRMC,082634.00,A,3030.1669831,N,11425.7514421,E,0.11,0.00,200524,0.0,E,R,V*49
$GNGGA,082634.00,3030.1669831,N,11425.7514421,E,5,06,1.0,47.172,M,-13.676,M,-1.0,0000*66
$GPGSA,A,3,05,06,11,13,20,29,,,,,,,2.8,1.4,2.4,1*2E
$GPGSV,2,1,06,05,59,302,45,06,25,099,41,11,56,065,46,13,46,169,45,0*60
$GPGSV,2,2,06,20,59,009,45,29,30,315,45,,,,,,,,,0*6B
$GNRMC,082635.00,A,3030.1669847,N,11425.7514419,E,0.07,0.00,200524,0.0,E,R,V*45
$GNGGA,082635.00,3030.1669847,N,11425.7514419,E,5,06,1.0,47.168,M,-13.676,M,-1.0,0000*66
$GPGSA,A,3,05,06,11,13,20,29,,,,,,,2.8,1.4,2.4,1*2E
$GPGSV,2,1,06,05,59,302,45,06,25,099,41,11,56,065,45,13,46,169,46,0*60
$GPGSV,2,2,06,20,59,009,45,29,30,315,45,,,,,,,,,0*6B
$GNRMC,082636.00,A,3030.1669867,N,11425.7514428,E,0.15,0.00,200524,0.0,E,R,V*45
$GNGGA,082636.00,3030.1669867,N,11425.7514428,E,5,06,1.0,47.165,M,-13.676,M,-1.0,0000*68
$GPGSA,A,3,05,06,11,13,20,29,,,,,,,2.8,1.4,2.4,1*2E
$GPGSV,2,1,06,05,59,302,45,06,25,099,41,11,56,065,45,13,46,169,45,0*63
$GPGSV,2,2,06,20,59,009,44,29,30,315,45,,,,,,,,,0*6A
$GNRMC,082637.00,A,3030.1669858,N,11425.7514422,E,0.07,0.00,200524,0.0,E,R,V*41
$GNGGA,082637.00,3030.1669858,N,11425.7514422,E,5,06,1.0,47.166,M,-13.676,M,-1.0,0000*6C
$GPGSA,A,3,05,06,11,13,20,29,,,,,,,2.8,1.4,2.4,1*2E
$GPGSV,2,1,06,05,59,302,46,06,25,099,41,11,56,065,45,13,46,169,45,0*60
$GPGSV,2,2,06,20,59,009,44,29,30,315,45,,,,,,,,,0*6A
$GNRMC,082638.00,A,3030.1669852,N,11425.7514409,E,0.08,0.00,200524,0.0,E,R,V*42
$GNGGA,082638.00,3030.1669852,N,11425.7514409,E,5,06,1.0,47.174,M,-13.676,M,-1.0,0000*63
$GPGSA,A,3,05,06,11,13,20,29,,,,,,,2.8,1.4,2.4,1*2E
$GPGSV,2,1,06,05,59,302,45,06,25,099,41,11,56,065,46,13,46,169,45,0*60
$GPGSV,2,2,06,20,59,009,44,29,30,315,45,,,,,,,,,0*6A
$GNRMC,082639.00,A,3030.1669869,N,11425.7514428,E,0.12,0.00,200524,0.0,E,R,V*43
$GNGGA,082639.00,3030.1669869,N,11425.7514428,E,5,06,1.0,47.174,M,-13.676,M,-1.0,0000*69
$GPGSA,A,3,05,06,11,13,20,29,,,,,,,2.8,1.4,2.4,1*2E
$GPGSV,2,1,06,05,59,302,45,06,24,099,41,11,56,065,46,13,46,169,45,0*61
$GPGSV,2,2,06,20,59,009,44,29,30,315,45,,,,,,,,,0*6A
$GNRMC,082640.00,A,3030.1669890,N,11425.7514447,E,0.05,0.00,200524,0.0,E,R,V*44
$GNGGA,082640.00,3030.1669890,N,11425.7514447,E,5,06,1.0,47.171,M,-13.676,M,0.0,0000*41
$GPGSA,A,3,05,06,11,13,20,29,,,,,,,2.8,1.4,2.4,1*2E
$GPGSV,2,1,06,05,59,302,45,06,24,099,41,11,56,065,45,13,46,169,45,0*62
$GPGSV,2,2,06,20,59,009,44,29,30,315,45,,,,,,,,,0*6A
$GNRMC,082641.00,A,3030.1669905,N,11425.7514459,E,0.04,0.00,200524,0.0,E,R,V*46
$GNGGA,082641.00,3030.1669905,N,11425.7514459,E,5,06,1.0,47.167,M,-13.676,M,0.0,0000*45
$GPGSA,A,3,05,06,11,13,20,29,,,,,,,2.8,1.4,2.4,1*2E
$GPGSV,2,1,06,05,59,302,45,06,24,099,41,11,56,065,45,13,46,169,46,0*61
$GPGSV,2,2,06,20,59,009,44,29,30,315,45,,,,,,,,,0*6A
$GNRMC,082642.00,A,3030.1669967,N,11425.7514507,E,0.15,0.00,200524,0.0,E,R,V*4B
$GNGGA,082642.00,3030.1669967,N,11425.7514507,E,5,06,1.0,47.166,M,-13.676,M,0.0,0000*49
$GPGSA,A,3,05,06,11,13,20,29,,,,,,,2.8,1.4,2.4,1*2E
$GPGSV,2,1,06,05,59,302,44,06,24,099,41,11,56,065,45,13,46,169,45,0*63
$GPGSV,2,2,06,20,59,009,44,29,30,315,45,,,,,,,,,0*6A
$GNRMC,082643.00,A,3030.1669954,N,11425.7514483,E,0.03,0.00,200524,0.0,E,R,V*40
$GNGGA,082643.00,3030.1669954,N,11425.7514483,E,5,06,1.0,47.162,M,-13.676,M,0.0,0000*41
$GPGSA,A,3,05,06,11,13,20,29,,,,,,,2.8,1.4,2.4,1*2E
$GPGSV,2,1,06,05,59,303,45,06,24,099,41,11,56,065,45,13,46,169,45,0*63
$GPGSV,2,2,06,20,59,009,44,29,30,315,45,,,,,,,,,0*6A
$GNRMC,082644.00,A,3030.1669979,N,11425.7514500,E,0.16,0.00,200524,0.0,E,R,V*46
$GNGGA,082644.00,3030.1669979,N,11425.7514500,E,5,06,1.0,47.161,M,-13.676,M,0.0,0000*40
